{"carparks":[{"id":"1","address":"20 Charles Street","lat":"43.668997","lng":"-79.385093","rate":"$2.00 \/ Half Hour","carpark_type":"garage","carpark_type_str":"Garage","is_ttc":false,"rate_half_hour":"2.00","capacity":"430","max_height":"2.00","payment_methods":["Bills","Coins","Charge (Visa \/ Mastercard \/ American Express Only)"],"payment_options":["Auto Express Pay Stations","Credit Card at Entry & Exit","Customer Assistance Booth"],"rate_details":{"periods":[{"title":"Monday - Sunday & Holidays","rates":[{"when":"Day Maximum (7am - 6pm)","rate":"$12.00"},{"when":"Night Maximum (6pm - 7am)","rate":"$6.00"}],"notes":["Unreserved Monthly permit price - $220","Permits currently available","Inquires at monthlypermits@greenp.com or","416-393-7348"]}],"addenda":[]},"enable_streetview":"yes","streetview_lat":"43.668822","streetview_long":"-79.385262","streetview_yaw":"321.21","streetview_pitch":"-12.45","streetview_zoom":"0"},{"id":"3","address":"13 Isabella Street","lat":"43.667577","lng":"-79.384707","rate":"$2.25 \/ Half Hour","carpark_type":"surface","carpark_type_str":"Surface","is_ttc":false,"rate_half_hour":"2.25","capacity":"33","max_height":"0.00","payment_methods":["Coins","Charge (Visa \/ Mastercard \/ American Express Only)"],"payment_options":["Pay and Display"],"rate_details":{"periods":[{"title":"Monday - Saturday","rates":[{"when":"Day Maximum (7am - 6pm)","rate":"NO MAXIMUM"},{"when":"Night Maximum (6pm - 7am)","rate":"$7.00"}],"notes":[]},{"title":"Sunday & Holidays","rates":[{"when":"Day Maximum (7am - 6pm)","rate":"$6.00"},{"when":"Night Maximum (6pm - 7am)","rate":"$7.00"}],"notes":["Unreserved Monthly permit price - $150\r\nPermits currently not available \r\nInquires at monthlypermits@greenp.com or\r\n416-393-7348"]}],"addenda":[]},"enable_streetview":"yes","streetview_lat":"43.667735","streetview_long":"-79.384966","streetview_yaw":"115.84","streetview_pitch":"7.51","streetview_zoom":"0"},{"id":"5","address":"15 Wellesley Street East","lat":"43.664837","lng":"-79.383591","rate":"$2.00 \/ Half Hour","carpark_type":"surface","carpark_type_str":"Surface","is_ttc":false,"rate_half_hour":"2.00","capacity":"135","max_height":"0.00","payment_methods":["Bills","Coins","Charge (Visa \/ Mastercard \/ American Express Only)"],"payment_options":["Pay at Exit Lane Stations","Credit Card at Entry & Exit","Cashier"],"rate_details":{"periods":[{"title":"Monday to Saturday","rates":[{"when":"Day Maximum (7am - 6pm)","rate":"$14.00"},{"when":"Night Maximum (6pm - 7am)","rate":"$6.00"}],"notes":[]},{"title":"Sunday & Holidays","rates":[{"when":"Maximum (7am - 7am)","rate":"$5.00"}],"notes":["Unreserved Monthly permit price - $240\r\nPermits currently available \r\nInquires at monthlypermits@greenp.com or\r\n416-393-7348"]}],"addenda":[]},"enable_streetview":"yes","streetview_lat":"43.665083","streetview_long":"-79.383807","streetview_yaw":"138.09","streetview_pitch":"-4.68","streetview_zoom":"0"},{"id":"11","address":"21 Pleasant Blvd.","lat":"43.687092","lng":"-79.392850","rate":"$1.75 \/ Half Hour","carpark_type":"garage","carpark_type_str":"Garage","is_ttc":false,"rate_half_hour":"1.75","capacity":"557","max_height":"1.90","payment_methods":["Bills","Coins","Charge (Visa \/ Mastercard \/ American Express Only)"],"payment_options":["Auto Express Pay Stations","Credit Card at Entry & Exit","Customer Assistance Booth"],"rate_details":{"periods":[{"title":"Monday - Saturday & Holidays","rates":[{"when":"Day Maximum (7am - 6pm)","rate":"$10.00"},{"when":"Night Maximum (6pm - 7am)","rate":"$5.00"}],"notes":[]},{"title":"Sunday","rates":[{"when":"Maximum (Sunday 7am - Monday 7am)","rate":"$5.00"}],"notes":["Unreserved Monthly permit price - $170","Permits currently available","Inquires at monthlypermits@greenp.com or","416-393-7348","Unreserved Monthly permit price - $170","Permits currently available","Inquires at 416-393-7348"]}],"addenda":[]},"enable_streetview":"yes","streetview_lat":"43.686491","streetview_long":"-79.392056","streetview_yaw":"280.08","streetview_pitch":"-13.18","streetview_zoom":"0"},{"id":"12","address":"30 Alvin Avenue","lat":"43.689202","lng":"-79.393269","rate":"$2.50 \/ Half Hour","carpark_type":"surface","carpark_type_str":"Surface","is_ttc":false,"rate_half_hour":"2.50","capacity":"188","max_height":"2.67","payment_methods":["Bills","Coins","Charge (Visa \/ Mastercard \/ American Express Only)"],"payment_options":["Pay at Exit Lane Stations","Credit Card at Entry & Exit","Cashier"],"rate_details":{"periods":[{"title":"Monday - Saturday","rates":[{"when":"Day Maximum (6am - 6pm)","rate":"$20.00"},{"when":"Night Maximum (6pm - 6am)","rate":"$5.00"}],"notes":[]},{"title":"Sunday & Holidays","rates":[{"when":"Maximum (6am - 6am)","rate":"$5.00"}],"notes":[]}],"addenda":[]},"enable_streetview":"yes","streetview_lat":"43.688967","streetview_long":"-79.392832","streetview_yaw":"330.84","streetview_pitch":"1.32","streetview_zoom":"0"},{"id":"13","address":"20 Delisle Avenue","lat":"43.689000","lng":"-79.395586","rate":"$2.00 \/ Half Hour","carpark_type":"garage","carpark_type_str":"Garage","is_ttc":false,"rate_half_hour":"2.00","capacity":"238","max_height":"2.10","payment_methods":["Bills","Coins","Charge (Visa \/ Mastercard \/ American Express Only)"],"payment_options":["Auto Express Pay Stations","Credit Card at Entry & Exit","Pay and Display","Customer Assistance Booth"],"rate_details":{"periods":[{"title":"Monday - Saturday & Holidays (Attended)","rates":[{"when":"Day Maximum (7am - 6pm)","rate":"$13.00"},{"when":"Night Maximum (6pm - 7am)","rate":"$5.00"}],"notes":[]},{"title":"Sunday (Attended)","rates":[{"when":"Maximum (Sunday 7am - Monday 7am)","rate":"$5.00"}],"notes":[]},{"title":"Monday - Sunday & Holidays (Unattended)","rates":[{"when":"Day Maximum (7am - 6pm)","rate":"2 HOUR MAXIMUM"},{"when":"Night Maximum (6pm - 7am)","rate":"$5.00"}],"notes":[]}],"addenda":[]},"enable_streetview":"yes","streetview_lat":"43.688961","streetview_long":"-79.395299","streetview_yaw":"280.73","streetview_pitch":"4.22","streetview_zoom":"0"},{"id":"15","address":"37 Yorkville Avenue","lat":"43.671286","lng":"-79.389331","rate":"$2.00 \/ Half Hour","carpark_type":"garage","carpark_type_str":"Garage","is_ttc":false,"rate_half_hour":"2.00","capacity":"1036","max_height":"1.90","payment_methods":["Bills","Coins","Charge (Visa \/ Mastercard \/ American Express Only)"],"payment_options":["Auto Express Pay Stations","Credit Card at Entry & Exit","Customer Assistance Booth"],"rate_details":{"periods":[{"title":"Monday - Saturday & Holidays","rates":[{"when":"Day Maximum (7am - 6pm)","rate":"$12.00"},{"when":"Night Maximum (6pm - 7am)","rate":"$6.00"}],"notes":[]},{"title":"Sunday","rates":[{"when":"Maximum (Sunday 7am - Monday 7am)","rate":"$6.00"}],"notes":["Unreserved Monthly permit price - $240","Permits currently available","Inquires at 416-393-7348"]}],"addenda":[]},"enable_streetview":"yes","streetview_lat":"43.671546","streetview_long":"-79.389275","streetview_yaw":"212.41","streetview_pitch":"-8.00","streetview_zoom":"0"},{"id":"28","address":"670 Pape Avenue","lat":"43.678146","lng":"-79.344774","rate":"$1.00 \/ Half Hour","carpark_type":"surface","carpark_type_str":"Surface","is_ttc":false,"rate_half_hour":"1.00","capacity":"76","max_height":"0.00","payment_methods":["Coins","Charge (Visa \/ Mastercard \/ American Express Only)"],"payment_options":["Pay and Display"],"rate_details":{"periods":[{"title":"Monday - Sunday & Holidays","rates":[{"when":"Day Maximum (7am - 6pm)","rate":"$5.00"},{"when":"Night Maximum (6pm - 7am)","rate":"$4.00"}],"notes":["Unreserved Monthly permit price - $90","Permits currently available","Inquires at monthlypermits@greenp.com or","416-393-7348"]}],"addenda":[]},"enable_streetview":"yes","streetview_lat":"43.678215","streetview_long":"-79.344574","streetview_yaw":"226.03","streetview_pitch":"4.08","streetview_zoom":"0"},{"id":"18","address":"351 Keele Street","lat":"43.664581","lng":"-79.463993","rate":"$1.00 \/ Half Hour","carpark_type":"surface","carpark_type_str":"Surface","is_ttc":false,"rate_half_hour":"1.00","capacity":"77","max_height":"0.00","payment_methods":["Coins","Charge (Visa \/ Mastercard \/ American Express Only)"],"payment_options":["Pay and Display"],"rate_details":{"periods":[{"title":"Monday - Sunday & Holidays","rates":[{"when":"Day Maximum (7am - 6pm)","rate":"$4.00"},{"when":"Night Maximum (6pm - 7am)","rate":"$3.00"}],"notes":["Unreserved Monthly permit price - $65","Permits currently available","Inquires at monthlypermits@greenp.com or","416-393-7348"]}],"addenda":[]},"enable_streetview":"yes","streetview_lat":"43.664670","streetview_long":"-79.464226","streetview_yaw":"2.66","streetview_pitch":"0.19","streetview_zoom":"0"},{"id":"19","address":"385 Pacific Avenue","lat":"43.664736","lng":"-79.468124","rate":"$1.00 \/ Half Hour","carpark_type":"surface","carpark_type_str":"Surface","is_ttc":false,"rate_half_hour":"1.00","capacity":"71","max_height":"0.00","payment_methods":["Coins","Charge (Visa \/ Mastercard \/ American Express Only)"],"payment_options":["Pay and Display"],"rate_details":{"periods":[{"title":"Monday - Sunday & Holidays","rates":[{"when":"Day Maximum (7am - 6pm)","rate":"$5.00"},{"when":"Night Maximum (6pm - 7am)","rate":"$3.00"}],"notes":["Unreserved Monthly permit price - $55","Permits currently available","Inquires at monthlypermits@greenp.com or","416-393-7348"]}],"addenda":[]},"enable_streetview":"yes","streetview_lat":"43.665090","streetview_long":"-79.468421","streetview_yaw":"131.87","streetview_pitch":"3.63","streetview_zoom":"0"},{"id":"20","address":"101 Cedarvale Avenue","lat":"43.686541","lng":"-79.310957","rate":"$1.00 \/ Half Hour","carpark_type":"surface","carpark_type_str":"Surface","is_ttc":false,"rate_half_hour":"1.00","capacity":"37","max_height":"0.00","payment_methods":["Coins","Charge (Visa \/ Mastercard \/ American Express Only)"],"payment_options":["Pay and Display"],"rate_details":{"periods":[{"title":"Monday - Sunday & Holidays","rates":[{"when":"Day Maximum (7am - 6pm)","rate":"$4.00"},{"when":"Night Maximum (6pm - 7am)","rate":"$3.00"}],"notes":["Unreserved Monthly permit price - $50","Permits currently available","Inquires at monthlypermits@greenp.com or","416-393-7348"]}],"addenda":[]},"enable_streetview":"yes","streetview_lat":"43.686621","streetview_long":"-79.311177","streetview_yaw":"10.90","streetview_pitch":"-6.20","streetview_zoom":"0"},{"id":"21","address":"72 Amroth Avenue","lat":"43.685377","lng":"-79.311708","rate":"$1.00 \/ Half Hour","carpark_type":"surface","carpark_type_str":"Surface","is_ttc":false,"rate_half_hour":"1.00","capacity":"54","max_height":"0.00","payment_methods":["Coins","Charge (Visa \/ Mastercard \/ American Express Only)"],"payment_options":["Pay and Display"],"rate_details":{"periods":[{"title":"Monday - Sunday & Holidays","rates":[{"when":"Day Maximum (7am - 6pm)","rate":"$4.00"},{"when":"Night Maximum (6pm - 7am)","rate":"$3.00"}],"notes":["Unreserved Monthly permit price - $50","Permits currently available","Inquires at monthlypermits@greenp.com or","416-393-7348"]}],"addenda":[]},"enable_streetview":"yes","streetview_lat":"43.685473","streetview_long":"-79.311475","streetview_yaw":"200.16","streetview_pitch":"9.58","streetview_zoom":"0"},{"id":"26","address":"37 Queen Street East","lat":"43.652705","lng":"-79.377218","rate":"$2.50 \/ Half Hour","carpark_type":"garage","carpark_type_str":"Garage","is_ttc":false,"rate_half_hour":"2.50","capacity":"645","max_height":"2.00","payment_methods":["Bills","Coins","Charge (Visa \/ Mastercard \/ American Express Only)"],"payment_options":["Credit Card at Entry & Exit","Cashier"],"rate_details":{"periods":[{"title":"Monday - Friday","rates":[{"when":"Day Maximum (7am - 6pm)","rate":"$20.00"},{"when":"Night Maximum (6pm - 7am)","rate":"$6.00"}],"notes":[]},{"title":"Saturday - Sunday & Holidays","rates":[{"when":"Day Maximum (7am - 6pm)","rate":"$6.00"},{"when":"Night Maximum (6pm - 7am)","rate":"$6.00"}],"notes":["Unreserved Monthly permit price - $360","Permits currently unavailable \r\nInquires at monthlypermits@greenp.com or\r\n416-393-7348"]}],"addenda":[]},"enable_streetview":"yes","streetview_lat":"43.652849","streetview_long":"-79.377225","streetview_yaw":"135.41","streetview_pitch":"2.66","streetview_zoom":"0"},{"id":"17","address":"716 Pape Avenue","lat":"43.679713","lng":"-79.345375","rate":"$1.00 \/ Half Hour","carpark_type":"surface","carpark_type_str":"Surface","is_ttc":false,"rate_half_hour":"1.00","capacity":"85","max_height":null,"payment_methods":["Coins","Charge (Visa \/ Mastercard \/ American Express Only)"],"payment_options":["Pay and Display"],"rate_details":{"periods":[{"title":"Monday - Sunday & Holidays","rates":[{"when":"Day Maximum (7am - 6pm)","rate":"$6.50"},{"when":"Night Maximum (6pm - 7am)","rate":"$5.00"}],"notes":[]}],"addenda":[]},"enable_streetview":"yes","streetview_lat":"43.679806","streetview_long":"-79.345193","streetview_yaw":"204.47","streetview_pitch":"1.26","streetview_zoom":"0"},{"id":"29","address":"75 Holly Street","lat":"43.706469","lng":"-79.396348","rate":"$1.75 \/ Half Hour","carpark_type":"garage","carpark_type_str":"Garage","is_ttc":false,"rate_half_hour":"1.75","capacity":"460","max_height":"1.93","payment_methods":["Bills","Coins","Charge (Visa \/ Mastercard \/ American Express Only)"],"payment_options":["Auto Express Pay Stations","Credit Card at Entry & Exit","Customer Assistance Booth"],"rate_details":{"periods":[{"title":"Monday - Sunday & Holidays","rates":[{"when":"Day Maximum (7am - 6pm)","rate":"$12.00"},{"when":"Night Maximum (6pm - 7am)","rate":"$5.00"}],"notes":["Unreserved Monthly permit price - $200","Permits currently available","Inquires at monthlypermits@greenp.com or","416-393-7348"]}],"addenda":[]},"enable_streetview":"yes","streetview_lat":"43.706305","streetview_long":"-79.396497","streetview_yaw":"17.91","streetview_pitch":"-9.00","streetview_zoom":"0"},{"id":"32","address":"45 Bay Street","lat":"43.643785","lng":"-79.378002","rate":"$2.50 \/ Half Hour","carpark_type":"surface","carpark_type_str":"Surface","is_ttc":false,"rate_half_hour":"2.50","capacity":"330","max_height":"0.00","payment_methods":["Bills","Coins","Charge (Visa \/ Mastercard \/ American Express Only)"],"payment_options":["Cashier"],"rate_details":{"periods":[{"title":"Monday - Friday","rates":[{"when":"Day Maximum (5:30am - 6pm)","rate":"$18.00"},{"when":"Night Maximum (6pm - 5:30am)","rate":"$6.00"}],"notes":[]},{"title":"Saturday\/Sunday\/Holidays","rates":[{"when":"Day Maximum (5:30am - 5:30am)","rate":"$8.00"},{"when":"Night Maximum (6pm - 5:30am)","rate":"$5.00"}],"notes":[]},{"title":"Air Canada Centre Event","rates":[{"when":"Flat Rate","rate":"$25.00"}],"notes":["Unreserved Monthly permit price - $260","Permits currently not available","Inquires at monthlypermits@greenp.com or","416-393-7348"]}],"addenda":[]},"enable_streetview":"yes","streetview_lat":"43.643724","streetview_long":"-79.378203","streetview_yaw":"17.79","streetview_pitch":"-9.79","streetview_zoom":"0"},{"id":"34","address":"25 Dundas Street East","lat":"43.656004","lng":"-79.379933","rate":"$2.50 \/ Half Hour","carpark_type":"garage","carpark_type_str":"Garage","is_ttc":false,"rate_half_hour":"2.50","capacity":"265","max_height":"2.10","payment_methods":["Bills","Coins","Charge (Visa \/ Mastercard \/ American Express Only)"],"payment_options":["Auto Express Pay Stations","Credit Card at Entry & Exit","Customer Assistance Booth"],"rate_details":{"periods":[{"title":"Monday - Saturday & Holidays","rates":[{"when":"Day Maximum (7am - 6pm)","rate":"$19.00"},{"when":"Night Maximum (6pm - 7am)","rate":"$8.00"}],"notes":[]},{"title":"Sunday","rates":[{"when":"Maximum (Sunday 7am - Monday 7am)","rate":"$12.00"}],"notes":["Unreserved Monthly permit price - $360\r\nPermits currently not available \r\nInquires at monthlypermits@greenp.com or\r\n416-393-7348"]}],"addenda":[]},"enable_streetview":"yes","streetview_lat":"43.655987","streetview_long":"-79.379443","streetview_yaw":"292.30","streetview_pitch":"-13.84","streetview_zoom":"0"},{"id":"36","address":"110 Queen Street West (Nathan Phillips Square Garage)","lat":"43.651696","lng":"-79.383699","rate":"$2.50 \/ Half Hour","carpark_type":"garage","carpark_type_str":"Garage","is_ttc":false,"rate_half_hour":"2.50","capacity":"2087","max_height":"1.93","payment_methods":["Bills","Coins","Charge (Visa \/ Mastercard \/ American Express Only)"],"payment_options":["Credit Card at Entry & Exit","Cashier"],"rate_details":{"periods":[{"title":"Monday - Friday","rates":[{"when":"Day Maximum (7am - 6pm)","rate":"$15.00"},{"when":"Night Maximum (6pm - 7am)","rate":"$6.00"}],"notes":[]},{"title":"Saturday","rates":[{"when":"Day Maximum (7am - 6pm)","rate":"$6.00"},{"when":"Night Maximum (6pm - 7am)","rate":"$6.00"}],"notes":[]},{"title":"Sunday & Holidays","rates":[{"when":"Maximum (7am - 7am)","rate":"$6.00"}],"notes":["Unreserved Monthly permit price - $270","Permits currently available","Inquires at monthlypermits@greenp.com or","416-393-7348"]}],"addenda":[]},"enable_streetview":"yes","streetview_lat":"43.651372","streetview_long":"-79.384324","streetview_yaw":"359.08","streetview_pitch":"-4.94","streetview_zoom":"0"},{"id":"39","address":"20 Castlefield Avenue","lat":"43.711828","lng":"-79.400082","rate":"$1.75 \/ Half Hour","carpark_type":"surface","carpark_type_str":"Surface","is_ttc":false,"rate_half_hour":"1.75","capacity":"163","max_height":"0.00","payment_methods":["Bills","Coins","Charge (Visa \/ Mastercard \/ American Express Only)"],"payment_options":["Pay at Exit Lane Stations","Credit Card at Entry & Exit","Cashier"],"rate_details":{"periods":[{"title":"Monday - Saturday","rates":[{"when":"Day Maximum (7am - 6pm)","rate":"$10.00"},{"when":"Night Maximum (6pm - 7am)","rate":"$6.00"}],"notes":[]},{"title":"Sunday & Holidays","rates":[{"when":"Maximum (7am - 7am)","rate":"$4.00"}],"notes":["Unreserved Monthly permit price - $165\r\nPermits currently not available \r\nInquires at monthlypermits@greenp.com or\r\n416-393-7348"]}],"addenda":[]},"enable_streetview":"yes","streetview_lat":"43.711769","streetview_long":"-79.399856","streetview_yaw":"288.88","streetview_pitch":"-10.04","streetview_zoom":"0"},{"id":"41","address":"7 Norton Avenue","lat":"43.678365","lng":"-79.443882","rate":"$1.00 \/ Half Hour","carpark_type":"surface","carpark_type_str":"Surface","is_ttc":false,"rate_half_hour":"1.00","capacity":"64","max_height":"0.00","payment_methods":["Coins","Charge (Visa \/ Mastercard \/ American Express Only)"],"payment_options":["Pay and Display"],"rate_details":{"periods":[{"title":"Monday - Sunday & Holidays","rates":[{"when":"Day Maximum (7am - 6pm)","rate":"$8.00"},{"when":"Night Maximum (6pm - 7am)","rate":"$4.00"}],"notes":[]}],"addenda":[]},"enable_streetview":"yes","streetview_lat":"43.678607","streetview_long":"-79.443979","streetview_yaw":"117.64","streetview_pitch":"3.69","streetview_zoom":"0"},{"id":"42","address":"91 Via Italia","lat":"43.676817","lng":"-79.445239","rate":"$1.00 \/ Half Hour","carpark_type":"garage","carpark_type_str":"Garage","is_ttc":false,"rate_half_hour":"1.00","capacity":"169","max_height":"1.93","payment_methods":["Bills","Coins","Charge (Visa \/ Mastercard \/ American Express Only)"],"payment_options":["Auto Express Pay Stations","Credit Card at Entry & Exit"],"rate_details":{"periods":[{"title":"Monday - Sunday & Holidays","rates":[{"when":"Day Maximum (7am - 6pm)","rate":"$5.00"},{"when":"Night Maximum (6pm - 7am)","rate":"$3.00"}],"notes":["Unreserved Monthly permit price - $75","Permits currently not available","Inquires at monthlypermits@greenp.com or","416-393-7348"]}],"addenda":[]},"enable_streetview":"yes","streetview_lat":"43.676657","streetview_long":"-79.445339","streetview_yaw":"16.18","streetview_pitch":"1.73","streetview_zoom":"0"},{"id":"43","address":"2 Church Street (St. Lawrence Garage)","lat":"43.646440","lng":"-79.373066","rate":"$2.50 \/ Half Hour","carpark_type":"garage","carpark_type_str":"Garage","is_ttc":false,"rate_half_hour":"2.50","capacity":"2008","max_height":"1.98","payment_methods":["Bills","Coins","Charge (Visa \/ Mastercard \/ American Express Only)"],"payment_options":["Auto Express Pay Stations","Credit Card at Entry & Exit","Customer Assistance Booth"],"rate_details":{"periods":[{"title":"Monday - Sunday & Holidays","rates":[{"when":"Day Maximum (7am - 6pm)","rate":"$10.00"},{"when":"Night Maximum (6pm - 7am)","rate":"$5.00"}],"notes":[]},{"title":"SATURDAY SPECIAL","rates":[],"notes":["$1.00 EACH HOUR FOR THE FIRST 2 HOURS - REGULAR RATES THEREAFTER","Unreserved Monthly permit price - $180","Permits currently unavailable \r\nInquires at monthlypermits@greenp.com or\r\n416-393-7348"]}],"addenda":["(ENTRY BETWEEN 5am - 6pm ONLY)"]},"enable_streetview":"yes","streetview_lat":"43.646949","streetview_long":"-79.373181","streetview_yaw":"172.09","streetview_pitch":"-6.77","streetview_zoom":"0"},{"id":"44","address":"14 Fuller Avenue","lat":"43.640788","lng":"-79.439542","rate":"$0.75 \/ Half Hour","carpark_type":"surface","carpark_type_str":"Surface","is_ttc":false,"rate_half_hour":"0.75","capacity":"53","max_height":"2.13","payment_methods":["Coins","Charge (Visa \/ Mastercard \/ American Express Only)"],"payment_options":["Pay and Display"],"rate_details":{"periods":[{"title":"Monday - Sunday & Holidays","rates":[{"when":"Day Maximum (7am - 6pm)","rate":"$3.00"},{"when":"Night Maximum (6pm - 7am)","rate":"$2.00"}],"notes":["Unreserved Monthly permit price - $40\r\nPermits currently available \r\nInquires at monthlypermits@greenp.com or\r\n416-393-7348"]}],"addenda":[]},"enable_streetview":"yes","streetview_lat":"43.640585","streetview_long":"-79.439274","streetview_yaw":"299.87","streetview_pitch":"-11.09","streetview_zoom":"0"},{"id":"45","address":"111 Broadview Avenue","lat":"43.659179","lng":"-79.349774","rate":"$1.00 \/ Half Hour","carpark_type":"surface","carpark_type_str":"Surface","is_ttc":false,"rate_half_hour":"1.00","capacity":"92","max_height":"2.60","payment_methods":["Coins","Charge (Visa \/ Mastercard \/ American Express Only)"],"payment_options":["Pay and Display"],"rate_details":{"periods":[{"title":"Monday - Sunday & Holidays","rates":[{"when":"Day Maximum (7am - 6pm)","rate":"$6.00"},{"when":"Night Maximum (6pm - 7am)","rate":"$4.00"}],"notes":["Unreserved Monthly permit price - $70\r\nPermits currently available \r\nInquires at monthlypermits@greenp.com or\r\n416-393-7348"]}],"addenda":[]},"enable_streetview":"yes","streetview_lat":"43.659055","streetview_long":"-79.349893","streetview_yaw":"18.05","streetview_pitch":"3.82","streetview_zoom":"0"},{"id":"47","address":"125 Burnaby Blvd.","lat":"43.704445","lng":"-79.412076","rate":"$1.25 \/ Half Hour","carpark_type":"surface","carpark_type_str":"Surface","is_ttc":false,"rate_half_hour":"1.25","capacity":"174","max_height":"2.67","payment_methods":["Coins","Charge (Visa \/ Mastercard \/ American Express Only)"],"payment_options":["Pay and Display"],"rate_details":{"periods":[{"title":"Monday - Sunday & Holidays","rates":[{"when":"Day Maximum (7am - 6pm)","rate":"$8.00"},{"when":"Night Maximum (6pm - 7am)","rate":"$4.00"}],"notes":[]}],"addenda":[]},"enable_streetview":"yes","streetview_lat":"43.704398","streetview_long":"-79.411786","streetview_yaw":"300.61","streetview_pitch":"3.43","streetview_zoom":"0"},{"id":"48","address":"85 Lee Avenue","lat":"43.670037","lng":"-79.297621","rate":"$1.00 \/ Half Hour","carpark_type":"surface","carpark_type_str":"Surface","is_ttc":false,"rate_half_hour":"1.00","capacity":"68","max_height":"2.67","payment_methods":["Coins","Charge (Visa \/ Mastercard \/ American Express Only)"],"payment_options":["Pay and Display"],"rate_details":{"periods":[{"title":"Monday - Sunday & Holidays","rates":[{"when":"Day Maximum (7am - 6pm)","rate":"$6.50"},{"when":"Night Maximum (6pm - 7am)","rate":"$4.00"}],"notes":[]}],"addenda":[]},"enable_streetview":"yes","streetview_lat":"43.669913","streetview_long":"-79.297749","streetview_yaw":"6.26","streetview_pitch":"8.27","streetview_zoom":"0"},{"id":"51","address":"365 Lippincott Street","lat":"43.665054","lng":"-79.409662","rate":"$1.25 \/ Half Hour","carpark_type":"surface","carpark_type_str":"Surface","is_ttc":false,"rate_half_hour":"1.25","capacity":"144","max_height":"2.67","payment_methods":["Coins","Charge (Visa \/ Mastercard \/ American Express Only)"],"payment_options":["Pay and Display"],"rate_details":{"periods":[{"title":"Monday - Sunday & Holidays","rates":[{"when":"Day Maximum (7am - 6pm)","rate":"$7.00"},{"when":"Night Maximum (6pm - 7am)","rate":"$7.00"}],"notes":["Unreserved Monthly permit price - $110\r\nPermits currently available \r\nInquires at monthlypermits@greenp.com or\r\n416-393-7348"]}],"addenda":[]},"enable_streetview":"yes","streetview_lat":"43.664799","streetview_long":"-79.409746","streetview_yaw":"16.41","streetview_pitch":"7.88","streetview_zoom":"0"},{"id":"52","address":"40 York Street","lat":"43.645571","lng":"-79.382937","rate":"$3.00 \/ Half Hour","carpark_type":"garage","carpark_type_str":"Garage","is_ttc":false,"rate_half_hour":"3.00","capacity":"323","max_height":"1.95","payment_methods":["Bills","Coins","Charge (Visa \/ Mastercard \/ American Express Only)"],"payment_options":["Pay at Exit Lane Stations","Credit Card at Entry & Exit","Cashier"],"rate_details":{"periods":[{"title":"Monday - Friday","rates":[{"when":"Day Maximum (7am - 7pm)","rate":"$18.00"},{"when":"Night Maximum (5pm - 7am)","rate":"$6.00"}],"notes":[]},{"title":"Saturday - Sunday","rates":[{"when":"Maximum per 12 hour period (Sat 7am - Mon 7am)","rate":"$7.00"}],"notes":["Unreserved Monthly permit price - $350","Permits currently not available","Inquires at monthlypermits@greenp.com or","416-393-7348"]}],"addenda":[]},"enable_streetview":"yes","streetview_lat":"43.645805","streetview_long":"-79.383737","streetview_yaw":"169.83","streetview_pitch":"-15.75","streetview_zoom":"0"},{"id":"53","address":"803 Richmond Street West","lat":"43.644546","lng":"-79.410778","rate":"$1.75 \/ Half Hour","carpark_type":"surface","carpark_type_str":"Surface","is_ttc":false,"rate_half_hour":"1.75","capacity":"49","max_height":"0.00","payment_methods":["Coins","Charge (Visa \/ Mastercard \/ American Express Only)"],"payment_options":["Pay and Display"],"rate_details":{"periods":[{"title":"Monday - Sunday & Holidays","rates":[{"when":"Day Maximum (7am - 6pm)","rate":"$9.00"},{"when":"Night Maximum (6pm - 7am)","rate":"$6.00"}],"notes":[]}],"addenda":[]},"enable_streetview":"yes","streetview_lat":"43.644684","streetview_long":"-79.410916","streetview_yaw":"138.29","streetview_pitch":"-3.34","streetview_zoom":"0"},{"id":"55","address":"23 Bedford Park Avenue West","lat":"43.726770","lng":"-79.404330","rate":"$1.00 \/ Half Hour","carpark_type":"surface","carpark_type_str":"Surface","is_ttc":false,"rate_half_hour":"1.00","capacity":"42","max_height":"0.00","payment_methods":["Coins","Charge (Visa \/ Mastercard \/ American Express Only)"],"payment_options":["Pay and Display"],"rate_details":{"periods":[{"title":"Monday - Sunday & Holidays","rates":[{"when":"Night Maximum (6pm - 9am)","rate":"$3.00"}],"notes":[]}],"addenda":[]},"enable_streetview":"yes","streetview_lat":"43.727065","streetview_long":"-79.404618","streetview_yaw":"121.70","streetview_pitch":"-1.57","streetview_zoom":"0"},{"id":"58","address":"9 Bedford Road (Hotel Intercontinental)","lat":"43.668655","lng":"-79.397475","rate":"$2.00 \/ Half Hour","carpark_type":"garage","carpark_type_str":"Garage","is_ttc":false,"rate_half_hour":"2.00","capacity":"399","max_height":"1.95","payment_methods":["Bills","Coins","Charge (Visa \/ Mastercard \/ American Express Only)"],"payment_options":["Pay at Exit Lane Stations","Credit Card at Entry & Exit","Cashier"],"rate_details":{"periods":[{"title":"Monday - Saturday","rates":[{"when":"Day Maximum (7am - 6pm)","rate":"$12.00"},{"when":"Night Maximum (6pm - 7 am)","rate":"$6.00"}],"notes":[]},{"title":"Sunday & Holidays","rates":[{"when":"Maximum per 12 hour period (Sun 7am - Mon 7am)","rate":"$6.00"}],"notes":[]}],"addenda":[]},"enable_streetview":"yes","streetview_lat":"43.668582","streetview_long":"-79.397604","streetview_yaw":"10.67","streetview_pitch":"4.71","streetview_zoom":"0"},{"id":"62","address":"1119 Queen Street West","lat":"43.642954","lng":"-79.424211","rate":"$1.50 \/ Half Hour","carpark_type":"surface","carpark_type_str":"Surface","is_ttc":false,"rate_half_hour":"1.50","capacity":"29","max_height":"0.00","payment_methods":["Coins","Charge (Visa \/ Mastercard \/ American Express Only)"],"payment_options":["Pay and Display"],"rate_details":{"periods":[{"title":"Monday - Sunday & Holidays","rates":[{"when":"Maximum (Any 12 hr Period)","rate":"$10.50"}],"notes":[]}],"addenda":[]},"enable_streetview":"yes","streetview_lat":"43.643050","streetview_long":"-79.424344","streetview_yaw":"99.35","streetview_pitch":"-3.33","streetview_zoom":"0"},{"id":"64","address":"265 Durie Street","lat":"43.650881","lng":"-79.479014","rate":"$1.00 \/ Half Hour","carpark_type":"surface","carpark_type_str":"Surface","is_ttc":false,"rate_half_hour":"1.00","capacity":"155","max_height":"0.00","payment_methods":["Coins","Charge (Visa \/ Mastercard \/ American Express Only)"],"payment_options":["Pay and Display"],"rate_details":{"periods":[{"title":"Monday - Sunday & Holidays","rates":[{"when":"Day Maximum (9am - 6pm)","rate":"$6.00"},{"when":"Night Maximum (6pm - 9am)","rate":"$3.00"}],"notes":[]}],"addenda":[]},"enable_streetview":"yes","streetview_lat":"43.650939","streetview_long":"-79.479217","streetview_yaw":"15.78","streetview_pitch":"-1.28","streetview_zoom":"0"},{"id":"68","address":"20 St. Andrew Street (Kensington Garage)","lat":"43.654303","lng":"-79.400079","rate":"$1.25 \/ Half Hour","carpark_type":"garage","carpark_type_str":"Garage","is_ttc":false,"rate_half_hour":"1.25","capacity":"450","max_height":"1.90","payment_methods":["Bills","Coins","Charge (Visa \/ Mastercard \/ American Express Only)"],"payment_options":["Auto Express Pay Stations","Credit Card at Entry & Exit","Customer Assistance Booth"],"rate_details":{"periods":[{"title":"Sunday - Friday & Holidays","rates":[{"when":"Day Mximum (7am - 6pm)","rate":"$5.50"},{"when":"Night Maximum (6pm - 7am)","rate":"$4.00"}],"notes":[]},{"title":"Saturday","rates":[{"when":"Day Maximum (7am - 6pm)","rate":"$6.00"},{"when":"Night Maximum (6pm - 7am)","rate":"$4.00"}],"notes":[]}],"addenda":[]},"enable_streetview":"yes","streetview_lat":"43.654219","streetview_long":"-79.399523","streetview_yaw":"286.22","streetview_pitch":"-0.55","streetview_zoom":"0"},{"id":"71","address":"35 Bellevue Avenue","lat":"43.654184","lng":"-79.403176","rate":"$1.50 \/ Half Hour","carpark_type":"surface","carpark_type_str":"Surface","is_ttc":false,"rate_half_hour":"1.50","capacity":"91","max_height":"2.67","payment_methods":["Coins","Charge (Visa \/ Mastercard \/ American Express Only)"],"payment_options":["Pay and Display"],"rate_details":{"periods":[{"title":"Monday - Friday","rates":[{"when":"Day Maximum (7am - 6pm)","rate":"$12.00"},{"when":"Night Maximum (6pm - 7am)","rate":"$3.00"}],"notes":[]},{"title":"Saturday - Sunday & Holidays","rates":[{"when":"Day Maximum (7am - 6pm)","rate":"NO MAXIMUM"},{"when":"Night Maximum (6pm - 7am)","rate":"$3.00"}],"notes":[]}],"addenda":["ATTENDED ON SATURDAY - CASH ONLY"]},"enable_streetview":"yes","streetview_lat":"43.654187","streetview_long":"-79.403324","streetview_yaw":"33.58","streetview_pitch":"2.92","streetview_zoom":"0"},{"id":"78","address":"35 Erindale Avenue","lat":"43.677316","lng":"-79.357467","rate":"$1.50 \/ Half Hour","carpark_type":"surface","carpark_type_str":"Surface","is_ttc":false,"rate_half_hour":"1.50","capacity":"93","max_height":"0.00","payment_methods":["Coins","Charge (Visa \/ Mastercard \/ American Express Only)"],"payment_options":["Pay and Display"],"rate_details":{"periods":[{"title":"Monday - Sunday & Holidays","rates":[{"when":"Day Maximum (7am - 6pm)","rate":"$9.00"},{"when":"Night Maximum (6pm - 7am)","rate":"$4.00"}],"notes":[]}],"addenda":[]},"enable_streetview":"yes","streetview_lat":"43.677441","streetview_long":"-79.357920","streetview_yaw":"106.20","streetview_pitch":"3.34","streetview_zoom":"0"},{"id":"79","address":"405 Sherbourne Street","lat":"43.664520","lng":"-79.373502","rate":"$1.00 \/ Half Hour","carpark_type":"surface","carpark_type_str":"Surface","is_ttc":false,"rate_half_hour":"1.00","capacity":"110","max_height":"0.00","payment_methods":["Coins","Charge (Visa \/ Mastercard \/ American Express Only)"],"payment_options":["Pay and Display"],"rate_details":{"periods":[{"title":"Monday - Sunday","rates":[{"when":"Day Maximum (7am - 6pm)","rate":"$6.00"},{"when":"Night Maximum (6pm - 7am)","rate":"$4.00"}],"notes":[]},{"title":"Monday - Thursday","rates":[{"when":"Night Maximum (8pm - 7am)","rate":"$8.00"}],"notes":[]},{"title":"Friday - Sunday","rates":[{"when":"Flat Rate (8pm - 7am)","rate":"$8.00"}],"notes":[]}],"addenda":[]},"enable_streetview":"yes","streetview_lat":"43.664658","streetview_long":"-79.373660","streetview_yaw":"84.65","streetview_pitch":"-2.17","streetview_zoom":"0"},{"id":"80","address":"400 Keele Street","lat":"43.666110","lng":"-79.465045","rate":"$1.00 \/ Half Hour","carpark_type":"surface","carpark_type_str":"Surface","is_ttc":false,"rate_half_hour":"1.00","capacity":"54","max_height":"0.00","payment_methods":["Coins","Charge (Visa \/ Mastercard \/ American Express Only)"],"payment_options":["Pay and Display"],"rate_details":{"periods":[{"title":"Monday - Sunday & Holidays","rates":[{"when":"Day Maximum (7am - 6pm)","rate":"$4.00"},{"when":"Night Maximum (6pm - 7am)","rate":"$3.00"}],"notes":[]}],"addenda":[]},"enable_streetview":"yes","streetview_lat":"43.666133","streetview_long":"-79.464847","streetview_yaw":"226.34","streetview_pitch":"1.93","streetview_zoom":"0"},{"id":"81","address":"695 Lansdowne Avenue","lat":"43.658969","lng":"-79.442739","rate":"$1.00 \/ Half Hour","carpark_type":"surface","carpark_type_str":"Surface","is_ttc":false,"rate_half_hour":"1.00","capacity":"40","max_height":"0.00","payment_methods":["Coins","Charge (Visa \/ Mastercard \/ American Express Only)"],"payment_options":["Pay and Display"],"rate_details":{"periods":[{"title":"Monday - Sunday & Holidays","rates":[{"when":"Day Maximum (7am - 6pm)","rate":"$4.00"},{"when":"Night Maximum (6pm - 7am)","rate":"$3.00"}],"notes":[]}],"addenda":[]},"enable_streetview":"yes","streetview_lat":"43.659089","streetview_long":"-79.442998","streetview_yaw":"36.53","streetview_pitch":"-0.99","streetview_zoom":"0"},{"id":"82","address":"92 Margueretta Avenue","lat":"43.659412","lng":"-79.440143","rate":"$1.00 \/ Half Hour","carpark_type":"surface","carpark_type_str":"Surface","is_ttc":false,"rate_half_hour":"1.00","capacity":"56","max_height":"0.00","payment_methods":["Coins","Charge (Visa \/ Mastercard \/ American Express Only)"],"payment_options":["Pay and Display"],"rate_details":{"periods":[{"title":"Monday - Sunday & Holidays","rates":[{"when":"Day Maximum (7am - 6pm)","rate":"$4.00"},{"when":"Night Maximum (6pm - 7am)","rate":"$3.00"}],"notes":[]}],"addenda":[]},"enable_streetview":"yes","streetview_lat":"43.659416","streetview_long":"-79.439896","streetview_yaw":"294.99","streetview_pitch":"5.03","streetview_zoom":"0"},{"id":"84","address":"9 Salem Avenue","lat":"43.661011","lng":"-79.431667","rate":"$1.00 \/ Half Hour","carpark_type":"surface","carpark_type_str":"Surface","is_ttc":false,"rate_half_hour":"1.00","capacity":"35","max_height":"0.00","payment_methods":["Coins","Charge (Visa \/ Mastercard \/ American Express Only)"],"payment_options":["Pay and Display"],"rate_details":{"periods":[{"title":"Monday - Sunday & Holidays","rates":[{"when":"Day Maximum (7am - 6pm)","rate":"$4.00"},{"when":"Night Maximum (6pm - 7am)","rate":"$3.00"}],"notes":[]}],"addenda":[]},"enable_streetview":"yes","streetview_lat":"43.661135","streetview_long":"-79.431817","streetview_yaw":"54.06","streetview_pitch":"9.53","streetview_zoom":"0"},{"id":"85","address":"557 Palmerston Avenue","lat":"43.665039","lng":"-79.413579","rate":"$1.25 \/ Half Hour","carpark_type":"surface","carpark_type_str":"Surface","is_ttc":false,"rate_half_hour":"1.25","capacity":"58","max_height":"0.00","payment_methods":["Coins","Charge (Visa \/ Mastercard \/ American Express Only)"],"payment_options":["Pay and Display"],"rate_details":{"periods":[{"title":"Monday - Sunday & Holidays","rates":[{"when":"Day Maximum (7am - 6pm)","rate":"$7.00"},{"when":"Night Maximum (6pm - 7am)","rate":"$4.00"}],"notes":[]}],"addenda":[]},"enable_streetview":"yes","streetview_lat":"43.665116","streetview_long":"-79.413817","streetview_yaw":"41.06","streetview_pitch":"3.83","streetview_zoom":"0"},{"id":"87","address":"14 Arundel Avenue","lat":"43.678456","lng":"-79.351223","rate":"$1.25 \/ Half Hour","carpark_type":"surface","carpark_type_str":"Surface","is_ttc":false,"rate_half_hour":"1.25","capacity":"83","max_height":"0.00","payment_methods":["Coins","Charge (Visa \/ Mastercard \/ American Express Only)"],"payment_options":["Pay and Display"],"rate_details":{"periods":[{"title":"Monday - Sunday & Holidays","rates":[{"when":"Day Maximum (7am - 6pm)","rate":"$7.00"},{"when":"Night Maximum (6pm - 7am)","rate":"$6.00"}],"notes":[]}],"addenda":[]},"enable_streetview":"yes","streetview_lat":"43.678635","streetview_long":"-79.351051","streetview_yaw":"224.34","streetview_pitch":"0.17","streetview_zoom":"0"},{"id":"88","address":"25 Ferrier Avenue","lat":"43.679007","lng":"-79.348379","rate":"$1.00 \/ Half Hour","carpark_type":"surface","carpark_type_str":"Surface","is_ttc":false,"rate_half_hour":"1.00","capacity":"47","max_height":"0.00","payment_methods":["Coins","Charge (Visa \/ Mastercard \/ American Express Only)"],"payment_options":["Pay and Display"],"rate_details":{"periods":[{"title":"Monday - Sunday & Holidays","rates":[{"when":"Day Maximum (7am - 6pm)","rate":"$7.00"},{"when":"Night Maximum (6pm - 7am)","rate":"$6.00"}],"notes":[]}],"addenda":[]},"enable_streetview":"yes","streetview_lat":"43.678964","streetview_long":"-79.348556","streetview_yaw":"27.42","streetview_pitch":"1.62","streetview_zoom":"0"},{"id":"89","address":"20 Eaton Avenue","lat":"43.679954","lng":"-79.343948","rate":"$0.75 \/ Half Hour","carpark_type":"surface","carpark_type_str":"Surface","is_ttc":false,"rate_half_hour":"0.75","capacity":"70","max_height":"0.00","payment_methods":["Coins","Charge (Visa \/ Mastercard \/ American Express Only)"],"payment_options":["Pay and Display"],"rate_details":{"periods":[{"title":"Monday - Sunday & Holidays","rates":[{"when":"Day Maximum (7am - 6pm)","rate":"$4.50"},{"when":"Night Maximum (6pm - 7am)","rate":"$3.00"}],"notes":[]}],"addenda":[]},"enable_streetview":"yes","streetview_lat":"43.679838","streetview_long":"-79.344392","streetview_yaw":"42.42","streetview_pitch":"0.91","streetview_zoom":"0"},{"id":"90","address":"17 Eaton Avenue","lat":"43.680078","lng":"-79.343197","rate":"$0.75 \/ Half Hour","carpark_type":"surface","carpark_type_str":"Surface","is_ttc":false,"rate_half_hour":"0.75","capacity":"30","max_height":null,"payment_methods":["Coins","Charge (Visa \/ Mastercard \/ American Express Only)"],"payment_options":["Pay and Display"],"rate_details":{"periods":[{"title":"Monday - Sunday & Holidays","rates":[{"when":"Day Maximum (7am - 6pm)","rate":"$4.50"},{"when":"Night Maximum (6pm - 7am)","rate":"$3.00"}],"notes":[]}],"addenda":[]},"enable_streetview":"yes","streetview_lat":"43.679992","streetview_long":"-79.343341","streetview_yaw":"28.30","streetview_pitch":"8.62","streetview_zoom":"0"},{"id":"91","address":"265 Armadale Avenue","lat":"43.650283","lng":"-79.483039","rate":"$1.00 \/ Half Hour","carpark_type":"surface","carpark_type_str":"Surface","is_ttc":false,"rate_half_hour":"1.00","capacity":"148","max_height":"0.00","payment_methods":["Coins","Charge (Visa \/ Mastercard \/ American Express Only)"],"payment_options":["Pay and Display"],"rate_details":{"periods":[{"title":"Monday - Sunday & Holidays","rates":[{"when":"Day Maximum (9am - 6pm)","rate":"$6.00"},{"when":"Night Maximum (6pm - 9am)","rate":"$3.00"}],"notes":[]}],"addenda":[]},"enable_streetview":"yes","streetview_lat":"43.650225","streetview_long":"-79.483148","streetview_yaw":"15.93","streetview_pitch":"7.05","streetview_zoom":"0"},{"id":"93","address":"675 Manning Avenue","lat":"43.664651","lng":"-79.416014","rate":"$1.25 \/ Half Hour","carpark_type":"surface","carpark_type_str":"Surface","is_ttc":false,"rate_half_hour":"1.25","capacity":"52","max_height":"0.00","payment_methods":["Coins","Charge (Visa \/ Mastercard \/ American Express Only)"],"payment_options":["Pay and Display"],"rate_details":{"periods":[{"title":"Monday - Sunday & Holidays","rates":[{"when":"Day Maximum (7am - 6pm)","rate":"$6.50"},{"when":"Night Maximum (6pm - 7am)","rate":"$3.00"}],"notes":[]}],"addenda":[]},"enable_streetview":"yes","streetview_lat":"43.664548","streetview_long":"-79.416183","streetview_yaw":"13.73","streetview_pitch":"3.10","streetview_zoom":"0"},{"id":"104","address":"745 Ossington Avenue, 16 Carling Avenue","lat":"43.662431","lng":"-79.425648","rate":"$1.00 \/ Half Hour","carpark_type":"surface","carpark_type_str":"Surface","is_ttc":false,"rate_half_hour":"1.00","capacity":"45","max_height":"0.00","payment_methods":["Coins","Charge (Visa \/ Mastercard \/ American Express Only)"],"payment_options":["Pay and Display"],"rate_details":{"periods":[{"title":"Monday - Sunday & Holidays","rates":[{"when":"Day Maximum (7am - 6pm)","rate":"$4.00"},{"when":"Night Maximum (6pm - 7am)","rate":"$3.00"}],"notes":[]}],"addenda":[]},"enable_streetview":"yes","streetview_lat":"43.662413","streetview_long":"-79.425823","streetview_yaw":"26.59","streetview_pitch":"-2.60","streetview_zoom":"0"},{"id":"106","address":"15 Denison Avenue","lat":"43.648412","lng":"-79.400307","rate":"$2.00 \/ Half Hour","carpark_type":"surface","carpark_type_str":"Surface","is_ttc":false,"rate_half_hour":"2.00","capacity":"120","max_height":"0.00","payment_methods":["Coins","Charge (Visa \/ Mastercard \/ American Express Only)"],"payment_options":["Pay and Display"],"rate_details":{"periods":[{"title":"Monday - Sunday & Holidays","rates":[{"when":"Day Maximum (7am - 6pm)","rate":"$10.00"},{"when":"Night Maximum (6pm - 7am)","rate":"$6.00"}],"notes":[]}],"addenda":[]},"enable_streetview":"yes","streetview_lat":"43.648406","streetview_long":"-79.399782","streetview_yaw":"303.27","streetview_pitch":"-3.47","streetview_zoom":"0"},{"id":"107","address":"251 MacPherson Avenue","lat":"43.677378","lng":"-79.400350","rate":"$1.00 \/ Half Hour","carpark_type":"surface","carpark_type_str":"Surface","is_ttc":false,"rate_half_hour":"1.00","capacity":"40","max_height":"0.00","payment_methods":["Coins","Charge (Visa \/ Mastercard \/ American Express Only)"],"payment_options":["Pay and Display"],"rate_details":{"periods":[{"title":"Monday - Sunday & Holidays","rates":[{"when":"Day Maximum (7am - 6pm)","rate":"$9.00"},{"when":"Night Maximum (6pm - 7am)","rate":"$3.00"}],"notes":[]}],"addenda":[]},"enable_streetview":"yes","streetview_lat":"43.677344","streetview_long":"-79.400682","streetview_yaw":"98.53","streetview_pitch":"-5.61","streetview_zoom":"0"},{"id":"109","address":"51 Aberdeen Avenue","lat":"43.664703","lng":"-79.369050","rate":"$1.50 \/ Half Hour","carpark_type":"surface","carpark_type_str":"Surface","is_ttc":false,"rate_half_hour":"1.50","capacity":"35","max_height":"0.00","payment_methods":["Coins","Charge (Visa \/ Mastercard \/ American Express Only)"],"payment_options":["Pay and Display"],"rate_details":{"periods":[{"title":"Monday - Sunday & Holidays","rates":[{"when":"Day Maximum (7am - 6pm)","rate":"$6.50"},{"when":"Night Maximum (6pm - 7am)","rate":"$5.00"}],"notes":[]}],"addenda":[]},"enable_streetview":"yes","streetview_lat":"43.664939","streetview_long":"-79.368760","streetview_yaw":"226.53","streetview_pitch":"-3.77","streetview_zoom":"0"},{"id":"110","address":"1612 Danforth Avenue","lat":"43.683577","lng":"-79.322995","rate":"$1.00 \/ Half Hour","carpark_type":"surface","carpark_type_str":"Surface","is_ttc":false,"rate_half_hour":"1.00","capacity":"25","max_height":"0.00","payment_methods":["Coins","Charge (Visa \/ Mastercard \/ American Express Only)"],"payment_options":["Pay and Display"],"rate_details":{"periods":[{"title":"Monday - Sunday & Holidays","rates":[{"when":"Day Maximum (7am - 6pm)","rate":"$6.00"},{"when":"Night Maximum (6pm - 7am)","rate":"$3.00"}],"notes":[]}],"addenda":[]},"enable_streetview":"yes","streetview_lat":"43.683601","streetview_long":"-79.322614","streetview_yaw":"294.61","streetview_pitch":"1.42","streetview_zoom":"0"},{"id":"111","address":"74 Clinton Street","lat":"43.656159","lng":"-79.414480","rate":"$1.25 \/ Half Hour","carpark_type":"garage","carpark_type_str":"Garage","is_ttc":false,"rate_half_hour":"1.25","capacity":"79","max_height":"1.93","payment_methods":["Coins","Charge (Visa \/ Mastercard \/ American Express Only)"],"payment_options":["Pay and Display"],"rate_details":{"periods":[{"title":"Sunday - Thursday","rates":[{"when":"Day Maximum (7am - 6pm)","rate":"$7.00"},{"when":"Night Maximum (6pm - 7am)","rate":"$8.00"}],"notes":[]},{"title":"Friday - Saturday","rates":[{"when":"Day Maximum (7am - 6pm)","rate":"$7.00"},{"when":"Night Maximum (6pm - 7am)","rate":"$10.00"}],"notes":[]}],"addenda":[]},"enable_streetview":"yes","streetview_lat":"43.655994","streetview_long":"-79.414178","streetview_yaw":"264.30","streetview_pitch":"-3.91","streetview_zoom":"0"},{"id":"116","address":"255 Kennedy Avenue","lat":"43.651680","lng":"-79.475119","rate":"$1.25 \/ Half Hour","carpark_type":"surface","carpark_type_str":"Surface","is_ttc":false,"rate_half_hour":"1.25","capacity":"56","max_height":"0.00","payment_methods":["Coins","Charge (Visa \/ Mastercard \/ American Express Only)"],"payment_options":["Pay and Display"],"rate_details":{"periods":[{"title":"Monday - Sunday & Holidays","rates":[{"when":"Day Maximum (7am - 6pm)","rate":"$8.00"},{"when":"Night Maximum (6pm - 7am)","rate":"$4.00"}],"notes":[]}],"addenda":[]},"enable_streetview":"yes","streetview_lat":"43.651747","streetview_long":"-79.475250","streetview_yaw":"44.12","streetview_pitch":"7.05","streetview_zoom":"0"},{"id":"125","address":"323 Richmond Street East","lat":"43.653381","lng":"-79.368582","rate":"$2.00 \/ Half Hour","carpark_type":"garage","carpark_type_str":"Garage","is_ttc":false,"rate_half_hour":"2.00","capacity":"258","max_height":"1.93","payment_methods":["Bills","Coins","Charge (Visa \/ Mastercard \/ American Express Only)"],"payment_options":["Auto Express Pay Stations","Credit Card at Entry & Exit"],"rate_details":{"periods":[{"title":"Monday - Sunday & Holidays","rates":[{"when":"Day Maximum (7am - 6pm)","rate":"$13.00"},{"when":"Night Maximum (6pm - 7am)","rate":"$6.00"}],"notes":[]}],"addenda":[]},"enable_streetview":"yes","streetview_lat":"43.653570","streetview_long":"-79.368281","streetview_yaw":"125.45","streetview_pitch":"-4.07","streetview_zoom":"0"},{"id":"130","address":"7 Bartlett Avenue","lat":"43.660899","lng":"-79.433013","rate":"$1.00 \/ Half Hour","carpark_type":"surface","carpark_type_str":"Surface","is_ttc":false,"rate_half_hour":"1.00","capacity":"38","max_height":"0.00","payment_methods":["Coins","Charge (Visa \/ Mastercard \/ American Express Only)"],"payment_options":["Pay and Display"],"rate_details":{"periods":[{"title":"Monday - Sunday & Holidays","rates":[{"when":"Day Maximum (7am - 6pm)","rate":"$4.00"},{"when":"Night Maximum (6pm - 7am)","rate":"$3.00"}],"notes":[]}],"addenda":[]},"enable_streetview":"yes","streetview_lat":"43.660855","streetview_long":"-79.433081","streetview_yaw":"19.14","streetview_pitch":"-0.11","streetview_zoom":"0"},{"id":"131","address":"912 Eglinton Avenue West","lat":"43.700543","lng":"-79.428073","rate":"$1.25 \/ Half Hour","carpark_type":"surface","carpark_type_str":"Surface","is_ttc":false,"rate_half_hour":"1.25","capacity":"28","max_height":"0.00","payment_methods":["Coins","Charge (Visa \/ Mastercard \/ American Express Only)"],"payment_options":["Pay and Display"],"rate_details":{"periods":[{"title":"Monday - Sunday & Holidays","rates":[{"when":"Day Maximum (7am - 6pm)","rate":"$10.00"},{"when":"Night Maximum (6pm - 7am)","rate":"$5.00"}],"notes":[]}],"addenda":[]},"enable_streetview":"yes","streetview_lat":"43.700541","streetview_long":"-79.427725","streetview_yaw":"327.27","streetview_pitch":"2.95","streetview_zoom":"0"},{"id":"137","address":"77 Gough Avenue","lat":"43.679481","lng":"-79.346287","rate":"$1.00 \/ Half Hour","carpark_type":"surface","carpark_type_str":"Surface","is_ttc":false,"rate_half_hour":"1.00","capacity":"17","max_height":"0.00","payment_methods":["Coins","Charge (Visa \/ Mastercard \/ American Express Only)"],"payment_options":["Pay and Display"],"rate_details":{"periods":[{"title":"Monday - Sunday & Holidays","rates":[{"when":"Day Maximum (7am -6pm)","rate":"$7.00"},{"when":"Night Maximum (6pm - 7am)","rate":"$6.00"}],"notes":[]}],"addenda":[]},"enable_streetview":"yes","streetview_lat":"43.679362","streetview_long":"-79.346356","streetview_yaw":"28.20","streetview_pitch":"2.12","streetview_zoom":"0"},{"id":"139","address":"6 Sherwood Avenue","lat":"43.713751","lng":"-79.399213","rate":"$1.25 \/ Half Hour","carpark_type":"surface","carpark_type_str":"Surface","is_ttc":false,"rate_half_hour":"1.25","capacity":"46","max_height":"2.00","payment_methods":["Coins","Charge (Visa \/ Mastercard \/ American Express Only)"],"payment_options":["Pay and Display"],"rate_details":{"periods":[{"title":"Monday - Friday","rates":[{"when":"Day Maximum (7am - 6pm)","rate":"$7.00"},{"when":"Night Maximum (6pm - 7am)","rate":"$5.00"}],"notes":[]},{"title":"Saturday - Sunday & Holidays","rates":[{"when":"Day Maximum (7am - 6pm)","rate":"NO MAXIMUM"},{"when":"Night Maximum (6pm - 7am)","rate":"$5.00"}],"notes":[]}],"addenda":[]},"enable_streetview":"yes","streetview_lat":"43.713657","streetview_long":"-79.399078","streetview_yaw":"357.11","streetview_pitch":"-0.38","streetview_zoom":"0"},{"id":"141","address":"141 Greenlaw Avenue","lat":"43.676198","lng":"-79.447739","rate":"$1.00 \/ Half Hour","carpark_type":"surface","carpark_type_str":"Surface","is_ttc":false,"rate_half_hour":"1.00","capacity":"53","max_height":"0.00","payment_methods":["Coins","Charge (Visa \/ Mastercard \/ American Express Only)"],"payment_options":["Pay and Display"],"rate_details":{"periods":[{"title":"Monday - Sunday & Holidays","rates":[{"when":"Day Maximum (7am - 6pm)","rate":"$4.00"},{"when":"Night Maximum (6pm - 7am)","rate":"$3.00"}],"notes":[]}],"addenda":[]},"enable_streetview":"yes","streetview_lat":"43.676425","streetview_long":"-79.447945","streetview_yaw":"132.03","streetview_pitch":"0.00","streetview_zoom":"0"},{"id":"142","address":"31 Langford Avenue","lat":"43.680613","lng":"-79.340751","rate":"$0.75 \/ Half Hour","carpark_type":"surface","carpark_type_str":"Surface","is_ttc":false,"rate_half_hour":"0.75","capacity":"27","max_height":"0.00","payment_methods":["Coins","Charge (Visa \/ Mastercard \/ American Express Only)"],"payment_options":["Pay and Display"],"rate_details":{"periods":[{"title":"Monday - Sunday & Holidays","rates":[{"when":"Day Maximum (7am - 6pm)","rate":"$4.00"},{"when":"Night Maximum (6pm - 7am)","rate":"$3.00"}],"notes":[]}],"addenda":[]},"enable_streetview":"yes","streetview_lat":"43.680567","streetview_long":"-79.340894","streetview_yaw":"32.56","streetview_pitch":"1.54","streetview_zoom":"0"},{"id":"143","address":"265 Willard Avenue","lat":"43.650431","lng":"-79.481771","rate":"$1.00 \/ Half Hour","carpark_type":"surface","carpark_type_str":"Surface","is_ttc":false,"rate_half_hour":"1.00","capacity":"88","max_height":"0.00","payment_methods":["Coins","Charge (Visa \/ Mastercard \/ American Express Only)"],"payment_options":["Pay and Display"],"rate_details":{"periods":[{"title":"Monday - Sunday & Holidays","rates":[{"when":"Day Maximum (9am - 6pm)","rate":"$6.00"},{"when":"Night Maximum (6pm - 9am)","rate":"$3.00"}],"notes":[]}],"addenda":[]},"enable_streetview":"yes","streetview_lat":"43.650319","streetview_long":"-79.481894","streetview_yaw":"26.30","streetview_pitch":"0.47","streetview_zoom":"0"},{"id":"144","address":"376 Clinton Street","lat":"43.664441","lng":"-79.417580","rate":"$1.25 \/ Half Hour","carpark_type":"surface","carpark_type_str":"Surface","is_ttc":false,"rate_half_hour":"1.25","capacity":"33","max_height":"0.00","payment_methods":["Coins","Charge (Visa \/ Mastercard \/ American Express Only)"],"payment_options":["Pay and Display"],"rate_details":{"periods":[{"title":"Monday - Sunday & Holidays","rates":[{"when":"Day Maximum (7am - 6pm)","rate":"$8.00"},{"when":"Night Maximum (6pm - 7am)","rate":"$3.00"}],"notes":[]}],"addenda":[]},"enable_streetview":"yes","streetview_lat":"43.664204","streetview_long":"-79.417300","streetview_yaw":"294.57","streetview_pitch":"1.32","streetview_zoom":"0"},{"id":"146","address":"573 Gerrard Street East","lat":"43.665202","lng":"-79.353164","rate":"$1.00 \/ Half Hour","carpark_type":"surface","carpark_type_str":"Surface","is_ttc":false,"rate_half_hour":"1.00","capacity":"37","max_height":"0.00","payment_methods":["Coins","Charge (Visa \/ Mastercard \/ American Express Only)"],"payment_options":["Pay and Display"],"rate_details":{"periods":[{"title":"Monday - Friday","rates":[{"when":"Day Maximum (7am - 6pm)","rate":"$5.00"},{"when":"Night Maximum (6pm - 7am)","rate":"$3.00"}],"notes":[]},{"title":"Saturday - Sunday & Holidays","rates":[{"when":"Day Maximum (7am - 6pm)","rate":"NO MAXIMUM"},{"when":"Night Maximum (6pm - 7am)","rate":"$3.00"}],"notes":[]}],"addenda":[]},"enable_streetview":"yes","streetview_lat":"43.665373","streetview_long":"-79.353150","streetview_yaw":"182.67","streetview_pitch":"-1.62","streetview_zoom":"0"},{"id":"149","address":"12 Woodycrest Avenue","lat":"43.680350","lng":"-79.342339","rate":"$0.75 \/ Half Hour","carpark_type":"surface","carpark_type_str":"Surface","is_ttc":false,"rate_half_hour":"0.75","capacity":"35","max_height":null,"payment_methods":["Coins","Charge (Visa \/ Mastercard \/ American Express Only)"],"payment_options":["Pay and Display"],"rate_details":{"periods":[{"title":"Monday - Sunday & Holidays","rates":[{"when":"Day Maximum (7am - 6pm)","rate":"$3.50"},{"when":"Night Maximum (6pm - 7am)","rate":"$3.00"}],"notes":[]}],"addenda":[]},"enable_streetview":"yes","streetview_lat":"43.680386","streetview_long":"-79.342097","streetview_yaw":"256.60","streetview_pitch":"2.00","streetview_zoom":"0"},{"id":"152","address":"25 Glenforest Road","lat":"43.730266","lng":"-79.402734","rate":"$1.25 \/ Half Hour","carpark_type":"surface","carpark_type_str":"Surface","is_ttc":false,"rate_half_hour":"1.25","capacity":"26","max_height":"0.00","payment_methods":["Coins","Charge (Visa \/ Mastercard \/ American Express Only)"],"payment_options":["Pay and Display"],"rate_details":{"periods":[{"title":"Monday - Sunday & Holidays","rates":[{"when":"Day Maximum (7am - 6pm)","rate":"NO MAXIMUM"},{"when":"Night Maximum (6pm - 9am)","rate":"$5.00"}],"notes":[]}],"addenda":[]},"enable_streetview":"yes","streetview_lat":"43.730480","streetview_long":"-79.402570","streetview_yaw":"196.51","streetview_pitch":"-0.55","streetview_zoom":"0"},{"id":"155","address":"995 Eglinton Avenue West","lat":"43.699612","lng":"-79.431131","rate":"$1.00 \/ Half Hour","carpark_type":"surface","carpark_type_str":"Surface","is_ttc":false,"rate_half_hour":"1.00","capacity":"33","max_height":"0.00","payment_methods":["Coins","Charge (Visa \/ Mastercard \/ American Express Only)"],"payment_options":["Pay and Display"],"rate_details":{"periods":[{"title":"Monday - Sunday & Holidays","rates":[{"when":"Day Maximum (7am - 6pm)","rate":"$5.00"},{"when":"Night Maximum (6pm - 7am)","rate":"$5.00"}],"notes":[]}],"addenda":[]},"enable_streetview":"yes","streetview_lat":"43.699784","streetview_long":"-79.431166","streetview_yaw":"125.65","streetview_pitch":"-2.89","streetview_zoom":"0"},{"id":"156","address":"18 Ferrier Avenue","lat":"43.678945","lng":"-79.348798","rate":"$1.00 \/ Half Hour","carpark_type":"surface","carpark_type_str":"Surface","is_ttc":false,"rate_half_hour":"1.00","capacity":"23","max_height":"0.00","payment_methods":["Coins","Charge (Visa \/ Mastercard \/ American Express Only)"],"payment_options":["Pay and Display"],"rate_details":{"periods":[{"title":"Monday - Sunday & Holidays","rates":[{"when":"Day Maximum (7am - 6pm)","rate":"$7.00"},{"when":"Night Maximum (6pm - 6am)","rate":"$6.00"}],"notes":[]}],"addenda":[]},"enable_streetview":"yes","streetview_lat":"43.678863","streetview_long":"-79.348518","streetview_yaw":"18.79","streetview_pitch":"4.82","streetview_zoom":"0"},{"id":"157","address":"709 Millwood Road","lat":"43.704181","lng":"-79.374053","rate":"$1.25 \/ Half Hour","carpark_type":"garage","carpark_type_str":"Garage","is_ttc":false,"rate_half_hour":"1.25","capacity":"20","max_height":"1.98","payment_methods":["Coins","Charge (Visa \/ Mastercard \/ American Express Only)"],"payment_options":["Pay and Display"],"rate_details":{"periods":[{"title":"Monday - Sunday & Holidays","rates":[{"when":"Day Maximum (7am - 6pm)","rate":"$7.00"},{"when":"Night Maximum (6pm - 7am)","rate":"$4.00"}],"notes":[]}],"addenda":[]},"enable_streetview":"yes","streetview_lat":"43.704360","streetview_long":"-79.374136","streetview_yaw":"216.07","streetview_pitch":"-4.67","streetview_zoom":"0"},{"id":"158","address":"1325 Queen Street West","lat":"43.640950","lng":"-79.433856","rate":"$1.00 \/ Half Hour","carpark_type":"surface","carpark_type_str":"Surface","is_ttc":false,"rate_half_hour":"1.00","capacity":"32","max_height":"0.00","payment_methods":["Coins","Charge (Visa \/ Mastercard \/ American Express Only)"],"payment_options":["Pay and Display"],"rate_details":{"periods":[{"title":"Monday - Sunday & Holidays","rates":[{"when":"Day Maximum (7am - 6pm)","rate":"$6.00"},{"when":"Night Maximum (6pm - 7am)","rate":"$4.00"}],"notes":[]}],"addenda":[]},"enable_streetview":"yes","streetview_lat":"43.641177","streetview_long":"-79.433772","streetview_yaw":"157.14","streetview_pitch":"-8.44","streetview_zoom":"0"},{"id":"161","address":"30 St. Clair Avenue West","lat":"43.688007","lng":"-79.395468","rate":"$2.00 \/ Half Hour","carpark_type":"garage","carpark_type_str":"Garage","is_ttc":false,"rate_half_hour":"2.00","capacity":"173","max_height":null,"payment_methods":["Bills","Coins","Charge (Visa \/ Mastercard \/ American Express Only)"],"payment_options":["Credit Card at Entry & Exit","Cashier"],"rate_details":{"periods":[{"title":"Monday - Saturday","rates":[{"when":"Day Maximum (7am - 6pm)","rate":"$20.00"},{"when":"Night Maximum (6pm - 7am)","rate":"$5.00"}],"notes":[]},{"title":"Sunday & Holidays","rates":[],"notes":["CLOSED"]}],"addenda":["Daily Hours of Operation (6:30am - 1:30am)"]},"enable_streetview":"yes","streetview_lat":"43.687912","streetview_long":"-79.395382","streetview_yaw":"328.59","streetview_pitch":"-6.83","streetview_zoom":"0"},{"id":"164","address":"453 Spadina Road","lat":"43.689543","lng":"-79.412946","rate":"$1.25 \/ Half Hour","carpark_type":"surface","carpark_type_str":"Surface","is_ttc":false,"rate_half_hour":"1.25","capacity":"43","max_height":"0.00","payment_methods":["Coins","Charge (Visa \/ Mastercard \/ American Express Only)"],"payment_options":["Pay and Display"],"rate_details":{"periods":[{"title":"Monday - Sunday & Holidays","rates":[{"when":"Day Maximum (7am - 6pm)","rate":"$10.00"},{"when":"Night Maximum (6pm - 7am)","rate":"$5.00"}],"notes":[]}],"addenda":[]},"enable_streetview":"yes","streetview_lat":"43.689450","streetview_long":"-79.412884","streetview_yaw":"15.26","streetview_pitch":"6.69","streetview_zoom":"0"},{"id":"167","address":"18 Ossington Avenue","lat":"43.644655","lng":"-79.419286","rate":"$1.00 \/ Half Hour","carpark_type":"surface","carpark_type_str":"Surface","is_ttc":false,"rate_half_hour":"1.00","capacity":"20","max_height":"0.00","payment_methods":["Coins","Charge (Visa \/ Mastercard \/ American Express Only)"],"payment_options":["Pay and Display"],"rate_details":{"periods":[{"title":"Monday - Sunday & Holidays","rates":[{"when":"Day Maximum (7am - 6pm)","rate":"$8.00"},{"when":"Night Maximum (6pm - 7am)","rate":"$5.00"}],"notes":[]}],"addenda":[]},"enable_streetview":"yes","streetview_lat":"43.644758","streetview_long":"-79.419072","streetview_yaw":"277.89","streetview_pitch":"4.42","streetview_zoom":"0"},{"id":"168","address":"146 Harrison Street","lat":"43.650423","lng":"-79.424404","rate":"$1.00 \/ Half Hour","carpark_type":"surface","carpark_type_str":"Surface","is_ttc":false,"rate_half_hour":"1.00","capacity":"47","max_height":"0.00","payment_methods":["Coins","Charge (Visa \/ Mastercard \/ American Express Only)"],"payment_options":["Pay and Display"],"rate_details":{"periods":[{"title":"Monday - Sunday & Holidays","rates":[{"when":"Day Maximum (7am - 6pm)","rate":"$6.00"},{"when":"Night Maximum (6pm - 7am)","rate":"$4.00"}],"notes":[]}],"addenda":[]},"enable_streetview":"yes","streetview_lat":"43.650391","streetview_long":"-79.424356","streetview_yaw":"8.18","streetview_pitch":"-7.86","streetview_zoom":"0"},{"id":"170","address":"17 Hammersmith Avenue","lat":"43.671597","lng":"-79.294446","rate":"$1.00 \/ Half Hour","carpark_type":"surface","carpark_type_str":"Surface","is_ttc":false,"rate_half_hour":"1.00","capacity":"30","max_height":"0.00","payment_methods":["Coins","Charge (Visa \/ Mastercard \/ American Express Only)"],"payment_options":["Pay and Display"],"rate_details":{"periods":[{"title":"Monday - Sunday & Holidays","rates":[{"when":"Day Maximum (7am - 6pm)","rate":"$6.00"},{"when":"Night Maximum (6pm - 7am)","rate":"$4.00"}],"notes":[]}],"addenda":[]},"enable_streetview":"yes","streetview_lat":"43.671538","streetview_long":"-79.294560","streetview_yaw":"25.35","streetview_pitch":"-4.20","streetview_zoom":"0"},{"id":"171","address":"730 Mt. Pleasant Road","lat":"43.706702","lng":"-79.389750","rate":"$1.25 \/ Half Hour","carpark_type":"garage","carpark_type_str":"Garage","is_ttc":false,"rate_half_hour":"1.25","capacity":"53","max_height":"2.10","payment_methods":["Bills","Coins","Charge (Visa \/ Mastercard \/ American Express Only)"],"payment_options":["Auto Express Pay Stations","Credit Card at Entry & Exit"],"rate_details":{"periods":[{"title":"Monday - Sunday & Holidays","rates":[{"when":"Day Maximum (7am - 6pm)","rate":"$8.00"},{"when":"Night Maximum (6pm - 7am)","rate":"$6.00"}],"notes":[]}],"addenda":[]},"enable_streetview":"yes","streetview_lat":"43.706773","streetview_long":"-79.389519","streetview_yaw":"287.53","streetview_pitch":"-5.23","streetview_zoom":"0"},{"id":"173","address":"737 Rhodes Avenue","lat":"43.682926","lng":"-79.324476","rate":"$1.00 \/ Half Hour","carpark_type":"surface","carpark_type_str":"Surface","is_ttc":false,"rate_half_hour":"1.00","capacity":"24","max_height":null,"payment_methods":["Coins","Charge (Visa \/ Mastercard \/ American Express Only)"],"payment_options":["Pay and Display"],"rate_details":{"periods":[{"title":"Monday - Sunday & Holidays","rates":[{"when":"Day Maximum (7am - 6pm)","rate":"$6.00"},{"when":"Night Maximum (6pm - 7am)","rate":"$3.00"}],"notes":[]}],"addenda":[]},"enable_streetview":"yes","streetview_lat":"43.682676","streetview_long":"-79.324554","streetview_yaw":"17.35","streetview_pitch":"-1.83","streetview_zoom":"0"},{"id":"174","address":"151 Hiawatha Road","lat":"43.672598","lng":"-79.322941","rate":"$1.00 \/ Half Hour","carpark_type":"surface","carpark_type_str":"Surface","is_ttc":false,"rate_half_hour":"1.00","capacity":"50","max_height":"0.00","payment_methods":["Coins","Charge (Visa \/ Mastercard \/ American Express Only)"],"payment_options":["Pay and Display"],"rate_details":{"periods":[{"title":"Monday - Sunday & Holidays","rates":[{"when":"Day Maximum (7am - 6pm)","rate":"$6.00"},{"when":"Night Maximum (6pm - 7am)","rate":"$5.00"}],"notes":[]}],"addenda":["LABOUR DAY - JUNE 30: PARKING ENFORCED FROM FRIDAY 6PM - MONDAY 7AM","JUNE 30 - LABOUR DAY: PARKING ENFORCED MONDAY - SUNDAY & HOLIDAYS"]},"enable_streetview":"yes","streetview_lat":"43.672572","streetview_long":"-79.323107","streetview_yaw":"80.36","streetview_pitch":"-1.87","streetview_zoom":"0"},{"id":"178","address":"650 Mt. Pleasant Road","lat":"43.704763","lng":"-79.388956","rate":"$1.25 \/ Half Hour","carpark_type":"garage","carpark_type_str":"Garage","is_ttc":false,"rate_half_hour":"1.25","capacity":"68","max_height":"2.10","payment_methods":["Coins","Charge (Visa \/ Mastercard \/ American Express Only)"],"payment_options":["Pay and Display"],"rate_details":{"periods":[{"title":"Monday - Sunday & Holidays","rates":[{"when":"Day Maximum (7am - 6pm)","rate":"$7.00"},{"when":"Night Maximum (6pm - 7am)","rate":"$6.00"}],"notes":[]}],"addenda":[]},"enable_streetview":"yes","streetview_lat":"43.704797","streetview_long":"-79.388733","streetview_yaw":"281.83","streetview_pitch":"-6.54","streetview_zoom":"0"},{"id":"179","address":"653 Gerrard Street East","lat":"43.665784","lng":"-79.350195","rate":"$1.00 \/ Half Hour","carpark_type":"surface","carpark_type_str":"Surface","is_ttc":false,"rate_half_hour":"1.00","capacity":"25","max_height":"2.15","payment_methods":["Coins","Charge (Visa \/ Mastercard \/ American Express Only)"],"payment_options":["Pay and Display"],"rate_details":{"periods":[{"title":"Monday - Friday","rates":[{"when":"Day Maximum (7am - 6pm)","rate":"$6.00"},{"when":"Night Maximum (6pm - 7am)","rate":"$4.00"}],"notes":[]},{"title":"Saturday - Sunday & Holidays","rates":[{"when":"Day Maximum (7am - 6pm)","rate":"NO MAXIMUM"},{"when":"Night Maximum (6pm - 7am)","rate":"$4.00"}],"notes":[]}],"addenda":[]},"enable_streetview":"yes","streetview_lat":"43.666012","streetview_long":"-79.350128","streetview_yaw":"124.91","streetview_pitch":"0.81","streetview_zoom":"0"},{"id":"180","address":"268 Rhodes Ave","lat":"43.672047","lng":"-79.320366","rate":"$0.75 \/ Half Hour","carpark_type":"surface","carpark_type_str":"Surface","is_ttc":false,"rate_half_hour":"0.75","capacity":"41","max_height":"2.15","payment_methods":["Coins","Charge (Visa \/ Mastercard \/ American Express Only)"],"payment_options":["Pay and Display"],"rate_details":{"periods":[{"title":"Monday - Friday ","rates":[{"when":"Day Maximum (7am - 6pm)","rate":"$4.00"},{"when":"Night Maximum (6pm - 7am)","rate":"$4.00"}],"notes":[]},{"title":"Saturday - Sunday & Holidays","rates":[{"when":"Day Maximum (7am - 6pm)","rate":"NO MAXIMUM"},{"when":"Night Maximum (6pm - 7am)","rate":"$4.00"}],"notes":[]}],"addenda":[]},"enable_streetview":"yes","streetview_lat":"43.672035","streetview_long":"-79.321050","streetview_yaw":"105.63","streetview_pitch":"7.34","streetview_zoom":"0"},{"id":"181","address":"1155 King Street West","lat":"43.637863","lng":"-79.424011","rate":"$1.50 \/ Half Hour","carpark_type":"surface","carpark_type_str":"Surface","is_ttc":false,"rate_half_hour":"1.50","capacity":"329","max_height":"0.00","payment_methods":["Coins","Charge (Visa \/ Mastercard \/ American Express Only)"],"payment_options":["Pay and Display"],"rate_details":{"periods":[{"title":"Monday - Sunday & Holidays","rates":[{"when":"Day Maximum (7am - 6pm)","rate":"$10.00"},{"when":"Night Maximum (6pm - 7am)","rate":"$5.00"},{"when":"Event Rate","rate":"$10.00"}],"notes":[]}],"addenda":["Event Rate in effect when attended by a Cashier"]},"enable_streetview":"yes","streetview_lat":"43.637729","streetview_long":"-79.424174","streetview_yaw":"61.35","streetview_pitch":"-4.60","streetview_zoom":"0"},{"id":"184","address":"192 Boardwalk Dr","lat":"43.668004","lng":"-79.307384","rate":"$0.75 \/ Half Hour","carpark_type":"surface","carpark_type_str":"Surface","is_ttc":false,"rate_half_hour":"0.75","capacity":"24","max_height":"0.00","payment_methods":["Coins","Charge (Visa \/ Mastercard \/ American Express Only)"],"payment_options":["Pay and Display"],"rate_details":{"periods":[{"title":"Monday - Sunday & Holidays","rates":[{"when":"Day Maximum (7am - 6pm)","rate":"$4.00"},{"when":"Night Maximum (6pm - 7am)","rate":"$3.00"}],"notes":[]}],"addenda":[]},"enable_streetview":"yes","streetview_lat":"43.668162","streetview_long":"-79.306778","streetview_yaw":"215.50","streetview_pitch":"4.12","streetview_zoom":"0"},{"id":"185","address":"116 Joseph Duggan Rd","lat":"43.667724","lng":"-79.308522","rate":"$0.75 \/ Half Hour","carpark_type":"surface","carpark_type_str":"Surface","is_ttc":false,"rate_half_hour":"0.75","capacity":"24","max_height":"0.00","payment_methods":["Coins","Charge (Visa \/ Mastercard \/ American Express Only)"],"payment_options":["Pay and Display"],"rate_details":{"periods":[{"title":"Monday - Sunday & Holidays","rates":[{"when":"Day Maximum (7am - 6pm)","rate":"$4.00"},{"when":"Night Maximum (6pm - 7am)","rate":"$3.00"}],"notes":[]}],"addenda":[]}},{"id":"186","address":"118 Sarah Ashbridge Ave","lat":"43.667445","lng":"-79.309487","rate":"$0.75 \/ Half Hour","carpark_type":"surface","carpark_type_str":"Surface","is_ttc":false,"rate_half_hour":"0.75","capacity":"24","max_height":"0.00","payment_methods":["Coins","Charge (Visa \/ Mastercard \/ American Express Only)"],"payment_options":["Pay and Display"],"rate_details":{"periods":[{"title":"Monday - Sunday & Holidays","rates":[{"when":"Day Maximum (7am - 6pm)","rate":"$4.00"},{"when":"Night Maximum (6pm - 7am)","rate":"$3.00"}],"notes":[]}],"addenda":[]},"enable_streetview":"yes","streetview_lat":"43.667681","streetview_long":"-79.309067","streetview_yaw":"213.90","streetview_pitch":"0.03","streetview_zoom":"0"},{"id":"188","address":"157 Beatrice Street","lat":"43.654669","lng":"-79.416411","rate":"$1.25 \/ Half Hour","carpark_type":"surface","carpark_type_str":"Surface","is_ttc":false,"rate_half_hour":"1.25","capacity":"18","max_height":"2.00","payment_methods":["Coins","Charge (Visa \/ Mastercard \/ American Express Only)"],"payment_options":["Pay and Display"],"rate_details":{"periods":[{"title":"Monday - Sunday & Holidays","rates":[{"when":"Day Maximum (7am - 6pm)","rate":"$9.00"},{"when":"Night Maximum (6pm - 7am)","rate":"$8.00"}],"notes":[]}],"addenda":[]},"enable_streetview":"yes","streetview_lat":"43.654524","streetview_long":"-79.416506","streetview_yaw":"19.58","streetview_pitch":"-2.16","streetview_zoom":"0"},{"id":"204","address":"1117 Dundas Street West","lat":"43.649267","lng":"-79.420135","rate":"$1.00 \/ Half Hour","carpark_type":"surface","carpark_type_str":"Surface","is_ttc":false,"rate_half_hour":"1.00","capacity":"37","max_height":"0.00","payment_methods":["Coins","Charge (Visa \/ Mastercard \/ American Express Only)"],"payment_options":["Pay and Display"],"rate_details":{"periods":[{"title":"Monday - Sunday & Holidays","rates":[{"when":"Day Maximum (7am - 6pm)","rate":"$6.50"},{"when":"Night Maximum (6pm - 7am)","rate":"$4.00"}],"notes":[]}],"addenda":[]},"enable_streetview":"yes","streetview_lat":"43.649443","streetview_long":"-79.420163","streetview_yaw":"152.88","streetview_pitch":"-1.42","streetview_zoom":"0"},{"id":"205","address":"465 Huron Street","lat":"43.667778","lng":"-79.401648","rate":"$1.75 \/ Half Hour","carpark_type":"surface","carpark_type_str":"Surface","is_ttc":false,"rate_half_hour":"1.75","capacity":"20","max_height":"0.00","payment_methods":["Coins","Charge (Visa \/ Mastercard \/ American Express Only)"],"payment_options":["Pay and Display"],"rate_details":{"periods":[{"title":"Monday - Sunday & Holidays","rates":[{"when":"Day Maximum (7am - 6pm)","rate":"$10.00"},{"when":"Night Maximum (6pm - 7am)","rate":"$6.00"}],"notes":[]}],"addenda":[]},"enable_streetview":"yes","streetview_lat":"43.667853","streetview_long":"-79.401809","streetview_yaw":"58.88","streetview_pitch":"-6.10","streetview_zoom":"0"},{"id":"400","address":"10 Kingsdale Avenue","lat":"43.770373","lng":"-79.412570","rate":"$1.25 \/ Half Hour","carpark_type":"surface","carpark_type_str":"Surface","is_ttc":false,"rate_half_hour":"1.25","capacity":"50","max_height":"0.00","payment_methods":["Coins","Charge (Visa \/ Mastercard \/ American Express Only)"],"payment_options":["Pay and Display"],"rate_details":{"periods":[{"title":"Monday - Sunday & Holidays","rates":[{"when":"Day Maximum (5am - 7pm)","rate":"$10.00"},{"when":"Night Maximum (7pm - 5am)","rate":"$5.00"}],"notes":[]}],"addenda":[]},"enable_streetview":"yes","streetview_lat":"43.770288","streetview_long":"-79.412570","streetview_yaw":"27.03","streetview_pitch":"-12.24","streetview_zoom":"0"},{"id":"401","address":"246 Brooke Avenue","lat":"43.733158","lng":"-79.420295","rate":"$1.00 \/ Half Hour","carpark_type":"surface","carpark_type_str":"Surface","is_ttc":false,"rate_half_hour":"1.00","capacity":"97","max_height":"0.00","payment_methods":["Coins","Charge (Visa \/ Mastercard \/ American Express Only)"],"payment_options":["Pay and Display"],"rate_details":{"periods":[{"title":"Monday - Sunday & Holidays","rates":[{"when":"Day Maximum (7 am - 6 pm)","rate":"$7.00"},{"when":"Night Maximum (6 pm - 7 am)","rate":"$4.50"}],"notes":[]}],"addenda":[]},"enable_streetview":"yes","streetview_lat":"43.733084","streetview_long":"-79.420221","streetview_yaw":"4.68","streetview_pitch":"-1.72","streetview_zoom":"0"},{"id":"271","address":"800 Fleet Street","lat":"43.636821","lng":"-79.409705","rate":"$1.00 \/ Half Hour","carpark_type":"surface","carpark_type_str":"Surface","is_ttc":false,"rate_half_hour":"1.00","capacity":"132","max_height":"0.00","payment_methods":["Coins","Charge (Visa \/ Mastercard \/ American Express Only)"],"payment_options":["Pay and Display"],"rate_details":{"periods":[{"title":"Monday - Sunday","rates":[{"when":"Day Maximum (7am - 7am)","rate":"$8.00"}],"notes":[]}],"addenda":["ATTENDED DURING EVENTS - EVENT RATE TO BE DETERMINED ON AN EVENT BY EVENT BASIS"]},"enable_streetview":"yes","streetview_lat":"43.636819","streetview_long":"-79.409869","streetview_yaw":"95.13","streetview_pitch":"1.90","streetview_zoom":"0"},{"id":"402","address":"10 Empress Avenue","lat":"43.769459","lng":"-79.412484","rate":"$1.75 \/ Half Hour","carpark_type":"surface","carpark_type_str":"Surface","is_ttc":false,"rate_half_hour":"1.75","capacity":"68","max_height":"0.00","payment_methods":["Coins","Charge (Visa \/ Mastercard \/ American Express Only)"],"payment_options":["Pay and Display"],"rate_details":{"periods":[{"title":"Monday - Sunday & Holidays","rates":[{"when":"Day Maximum (5am - 7pm)","rate":"$13.00"},{"when":"Night Maximum (7pm - 5am)","rate":"$6.00"}],"notes":[]}],"addenda":[]},"enable_streetview":"yes","streetview_lat":"43.769440","streetview_long":"-79.412243","streetview_yaw":"343.64","streetview_pitch":"-5.37","streetview_zoom":"0"},{"id":"403","address":"10 Harlandale Avenue","lat":"43.762168","lng":"-79.412441","rate":"$2.00 \/ Half Hour","carpark_type":"surface","carpark_type_str":"Surface","is_ttc":false,"rate_half_hour":"2.00","capacity":"112","max_height":"0.00","payment_methods":["Coins","Charge (Visa \/ Mastercard \/ American Express Only)"],"payment_options":["Pay and Display"],"rate_details":{"periods":[{"title":"Monday - Sunday & Holidays","rates":[{"when":"Day Maximum (7am - 6pm)","rate":"$14.00"},{"when":"Night Maximum (6pm - 7am)","rate":"$7.00"}],"notes":[]}],"addenda":[]}},{"id":"404","address":"95 Beecroft Road","lat":"43.763594","lng":"-79.414051","rate":"$1.75 \/ Half Hour","carpark_type":"garage","carpark_type_str":"Garage","is_ttc":false,"rate_half_hour":"1.75","capacity":"387","max_height":"1.93","payment_methods":["Bills","Coins","Charge (Visa \/ Mastercard \/ American Express Only)"],"payment_options":["Pay at Exit Lane Stations","Credit Card at Entry & Exit","Pay and Display","Cashier"],"rate_details":{"periods":[{"title":"Monday - Sunday & Holidays (Attended)","rates":[{"when":"Day Maximum (5am - 7pm)","rate":"$10.00"},{"when":"Night Maximum (7pm - 5am)","rate":"$5.00"},{"when":"UPPER LEVEL","rate":""}],"notes":[]},{"title":"Monday - Friday (Unattended)","rates":[{"when":"Day Maximum (5am - 7pm)","rate":"NO MAXIMUM"},{"when":"Night Maximum (7pm - 5am)","rate":"$5.00"}],"notes":[]},{"title":"Saturday - Sunday & Holidays (Unattended)","rates":[{"when":"Day Maximum (5am - 7pm)","rate":"$9.00"},{"when":"Night Maximum (7pm - 5am)","rate":"$5.00"},{"when":"LOWER LEVELS","rate":""}],"notes":[]},{"title":"Monday - Sundays & Holidays (Unattended)","rates":[{"when":"Day Maximum (5am - 7pm)","rate":"$10.00"},{"when":"Night Maximum (7pm - 5am)","rate":"$5.00"}],"notes":[]}],"addenda":[]},"enable_streetview":"yes","streetview_lat":"43.763531","streetview_long":"-79.414176","streetview_yaw":"26.30","streetview_pitch":"-3.91","streetview_zoom":"0"},{"id":"410","address":"180 Beecroft Road","lat":"43.767569","lng":"-79.416143","rate":"$1.50 \/ Half Hour","carpark_type":"surface","carpark_type_str":"Surface","is_ttc":false,"rate_half_hour":"1.50","capacity":"173","max_height":"0.00","payment_methods":["Bills","Coins","Charge (Visa \/ Mastercard \/ American Express Only)"],"payment_options":["Auto Express Pay Stations","Credit Card at Entry & Exit"],"rate_details":{"periods":[{"title":"Monday - Sunday & Holidays","rates":[{"when":"Day Maximum (5am - 7pm)","rate":"$10.00"},{"when":"Night Maximum (7pm - 5am)","rate":"$3.00"}],"notes":[]}],"addenda":[]},"enable_streetview":"yes","streetview_lat":"43.767449","streetview_long":"-79.415862","streetview_yaw":"270.15","streetview_pitch":"-9.76","streetview_zoom":"0"},{"id":"411","address":"1880 Avenue Road","lat":"43.732182","lng":"-79.419576","rate":"$1.00 \/ Half Hour","carpark_type":"surface","carpark_type_str":"Surface","is_ttc":false,"rate_half_hour":"1.00","capacity":"32","max_height":"0.00","payment_methods":["Coins","Charge (Visa \/ Mastercard \/ American Express Only)"],"payment_options":["Pay and Display"],"rate_details":{"periods":[{"title":"Monday - Sunday & Holidays","rates":[{"when":"Day Maximum (7am - 6pm)","rate":"$7.00"},{"when":"Night Maximum (6pm - 7am)","rate":"$4.00"}],"notes":[]}],"addenda":[]},"enable_streetview":"yes","streetview_lat":"43.732416","streetview_long":"-79.419434","streetview_yaw":"227.03","streetview_pitch":"-3.71","streetview_zoom":"0"},{"id":"412","address":"11 Finch West","lat":"43.779321","lng":"-79.416572","rate":"$1.50 \/ Half Hour","carpark_type":"surface","carpark_type_str":"Surface","is_ttc":false,"rate_half_hour":"1.50","capacity":"62","max_height":"0.00","payment_methods":["Coins","Charge (Visa \/ Mastercard \/ American Express Only)"],"payment_options":["Pay and Display"],"rate_details":{"periods":[{"title":"Monday - Sunday & Holidays","rates":[{"when":"Day Maximum (5am - 7pm)","rate":"$11.00"},{"when":"Night Maximum (7pm - 5am)","rate":"$5.00"}],"notes":[]}],"addenda":[]},"enable_streetview":"yes","streetview_lat":"43.779551","streetview_long":"-79.416615","streetview_yaw":"164.66","streetview_pitch":"-0.26","streetview_zoom":"0"},{"id":"413","address":"4576 Yonge Street","lat":"43.756023","lng":"-79.410403","rate":"$1.50 \/ Half Hour","carpark_type":"surface","carpark_type_str":"Surface","is_ttc":false,"rate_half_hour":"1.50","capacity":"17","max_height":"0.00","payment_methods":["Coins","Charge (Visa \/ Mastercard \/ American Express Only)"],"payment_options":["Pay and Display"],"rate_details":{"periods":[{"title":"Monday - Friday","rates":[{"when":"Day Maximum (5am - 7pm)","rate":"$9.00"},{"when":"Night Maximum (7pm - 5am)","rate":"$3.00"}],"notes":[]},{"title":"Saturday & Sunday","rates":[{"when":"Day Maximum (5am - 7pm)","rate":"$3.00"},{"when":"Night Maximum (7pm - 5am)","rate":"$3.00"}],"notes":[]}],"addenda":[]},"enable_streetview":"yes","streetview_lat":"43.756266","streetview_long":"-79.410608","streetview_yaw":"154.33","streetview_pitch":"-7.27","streetview_zoom":"0"},{"id":"418","address":"68 Sheppard Avenue West","lat":"43.760820","lng":"-79.414662","rate":"$1.00 \/ Half Hour","carpark_type":"surface","carpark_type_str":"Surface","is_ttc":false,"rate_half_hour":"1.00","capacity":"34","max_height":"2.15","payment_methods":["Coins","Charge (Visa \/ Mastercard \/ American Express Only)"],"payment_options":["Pay and Display"],"rate_details":{"periods":[{"title":"Monday - Sunday & Holidays","rates":[{"when":"Day Maximum (7am - 6pm)","rate":"$10.00"},{"when":"Night Maximum (6pm - 7am)","rate":"$3.00"}],"notes":[]}],"addenda":[]},"enable_streetview":"yes","streetview_lat":"43.760722","streetview_long":"-79.414524","streetview_yaw":"349.63","streetview_pitch":"-10.49","streetview_zoom":"0"},{"id":"500","address":"7 Jackson Avenue","lat":"43.648474","lng":"-79.508958","rate":"$1.00 \/ Half Hour","carpark_type":"surface","carpark_type_str":"Surface","is_ttc":false,"rate_half_hour":"1.00","capacity":"40","max_height":"0.00","payment_methods":["Coins","Charge (Visa \/ Mastercard \/ American Express Only)"],"payment_options":["Pay and Display"],"rate_details":{"periods":[{"title":"Monday - Sunday & Holidays","rates":[{"when":"Day Maximum (9am - 6pm)","rate":"$7.00"},{"when":"Night Maximum (6pm - 9am)","rate":"$3.00"}],"notes":[]}],"addenda":[]},"enable_streetview":"yes","streetview_lat":"43.648351","streetview_long":"-79.508854","streetview_yaw":"6.73","streetview_pitch":"2.16","streetview_zoom":"0"},{"id":"501","address":"11 Grenview Blvd. N.","lat":"43.648738","lng":"-79.507853","rate":"$1.00 \/ Half Hour","carpark_type":"surface","carpark_type_str":"Surface","is_ttc":false,"rate_half_hour":"1.00","capacity":"59","max_height":"0.00","payment_methods":["Coins","Charge (Visa \/ Mastercard \/ American Express Only)"],"payment_options":["Pay and Display"],"rate_details":{"periods":[{"title":"Monday - Sunday & Holidays","rates":[{"when":"Day Maximum (9am - 6pm)","rate":"$7.00"},{"when":"Night Maximum (6pm - 9am)","rate":"$3.00"}],"notes":[]}],"addenda":[]},"enable_streetview":"yes","streetview_lat":"43.648768","streetview_long":"-79.508016","streetview_yaw":"80.91","streetview_pitch":"5.04","streetview_zoom":"0"},{"id":"502","address":"342 Prince Edward Drive","lat":"43.649142","lng":"-79.505889","rate":"$1.00 \/ Half Hour","carpark_type":"surface","carpark_type_str":"Surface","is_ttc":false,"rate_half_hour":"1.00","capacity":"21","max_height":"0.00","payment_methods":["Coins","Charge (Visa \/ Mastercard \/ American Express Only)"],"payment_options":["Pay and Display"],"rate_details":{"periods":[{"title":"Monday - Sunday & Holidays","rates":[{"when":"Day Maximum (7am - 6pm)","rate":"$7.00"},{"when":"Night Maximum (6pm - 7am)","rate":"$3.00"}],"notes":[]}],"addenda":[]},"enable_streetview":"yes","streetview_lat":"43.649251","streetview_long":"-79.505673","streetview_yaw":"254.30","streetview_pitch":"1.60","streetview_zoom":"0"},{"id":"503","address":"12 Willingdon Blvd.","lat":"43.648389","lng":"-79.510632","rate":"$1.00 \/ Half Hour","carpark_type":"surface","carpark_type_str":"Surface","is_ttc":false,"rate_half_hour":"1.00","capacity":"65","max_height":"0.00","payment_methods":["Coins","Charge (Visa \/ Mastercard \/ American Express Only)"],"payment_options":["Pay and Display"],"rate_details":{"periods":[{"title":"Monday - Sunday & Holidays","rates":[{"when":"Day Maximum (7am - 6pm)","rate":"NO MAXIMUM"},{"when":"Night Maximum (6pm -7am)","rate":"$3.00"}],"notes":[]}],"addenda":[]},"enable_streetview":"yes","streetview_lat":"43.648504","streetview_long":"-79.510355","streetview_yaw":"237.42","streetview_pitch":"4.42","streetview_zoom":"0"},{"id":"504","address":"9 Willingdon Blvd.","lat":"43.648234","lng":"-79.510117","rate":"$1.00 \/ Half Hour","carpark_type":"surface","carpark_type_str":"Surface","is_ttc":false,"rate_half_hour":"1.00","capacity":"116","max_height":"0.00","payment_methods":["Coins","Charge (Visa \/ Mastercard \/ American Express Only)"],"payment_options":["Pay and Display"],"rate_details":{"periods":[{"title":"Monday - Sunday & Holidays","rates":[{"when":"Day Maximum (9am - 6pm)","rate":"$7.00"},{"when":"Night Maximum (6pm - 9am)","rate":"$3.00"}],"notes":[]}],"addenda":[]},"enable_streetview":"yes","streetview_lat":"43.647942","streetview_long":"-79.510114","streetview_yaw":"11.06","streetview_pitch":"-2.74","streetview_zoom":"0"},{"id":"505","address":"934 Royal York Road","lat":"43.646766","lng":"-79.511318","rate":"$1.00 \/ Half Hour","carpark_type":"surface","carpark_type_str":"Surface","is_ttc":false,"rate_half_hour":"1.00","capacity":"11","max_height":"0.00","payment_methods":["Coins","Charge (Visa \/ Mastercard \/ American Express Only)"],"payment_options":["Pay and Display"],"rate_details":{"periods":[{"title":"Monday - Sunday & Holidays","rates":[{"when":"Day Maximum (7am - 6pm)","rate":"NO MAXIMUM"},{"when":"Night Maximum (6pm - 7am)","rate":"$3.00"}],"notes":[]}],"addenda":[]},"enable_streetview":"yes","streetview_lat":"43.646973","streetview_long":"-79.511191","streetview_yaw":"257.00","streetview_pitch":"4.85","streetview_zoom":"0"},{"id":"506","address":"140 Fifth Street","lat":"43.601690","lng":"-79.503422","rate":"$0.75 \/ Half Hour","carpark_type":"surface","carpark_type_str":"Surface","is_ttc":false,"rate_half_hour":"0.75","capacity":"53","max_height":"0.00","payment_methods":["Coins","Charge (Visa \/ Mastercard \/ American Express Only)"],"payment_options":["Pay and Display"],"rate_details":{"periods":[{"title":"Monday - Sunday & Holidays","rates":[{"when":"Day Maximum (7am - 6pm)","rate":"$4.00"},{"when":"Night Maximum (6pm - 7am)","rate":"$2.00"}],"notes":[]}],"addenda":[]},"enable_streetview":"yes","streetview_lat":"43.601762","streetview_long":"-79.503215","streetview_yaw":"267.95","streetview_pitch":"-1.14","streetview_zoom":"0"},{"id":"507","address":"66 Third Street","lat":"43.601216","lng":"-79.500697","rate":"$0.75 \/ Half Hour","carpark_type":"surface","carpark_type_str":"Surface","is_ttc":false,"rate_half_hour":"0.75","capacity":"24","max_height":"0.00","payment_methods":["Coins","Charge (Visa \/ Mastercard \/ American Express Only)"],"payment_options":["Pay and Display"],"rate_details":{"periods":[{"title":"Monday - Sunday & Holidays","rates":[{"when":"Day Maximum (7am - 6pm)","rate":"$4.00"},{"when":"Night Maximum (6pm - 7am)","rate":"$2.00"}],"notes":[]}],"addenda":[]},"enable_streetview":"yes","streetview_lat":"43.601209","streetview_long":"-79.500520","streetview_yaw":"287.95","streetview_pitch":"0.03","streetview_zoom":"0"},{"id":"508","address":"128 Eighth Street","lat":"43.600906","lng":"-79.506769","rate":"$0.75 \/ Half Hour","carpark_type":"surface","carpark_type_str":"Surface","is_ttc":false,"rate_half_hour":"0.75","capacity":"45","max_height":"0.00","payment_methods":["Coins","Charge (Visa \/ Mastercard \/ American Express Only)"],"payment_options":["Pay and Display"],"rate_details":{"periods":[{"title":"Monday - Sunday & Holidays","rates":[{"when":"Day Maximum (7am - 6pm)","rate":"$4.00"},{"when":"Night Maximum (6pm - 7am)","rate":"$2.00"}],"notes":[]}],"addenda":[]},"enable_streetview":"yes","streetview_lat":"43.600935","streetview_long":"-79.506593","streetview_yaw":"283.41","streetview_pitch":"1.72","streetview_zoom":"0"},{"id":"510","address":"3239 Lakeshore Blvd W.","lat":"43.596640","lng":"-79.521446","rate":"$1.00 \/ Half Hour","carpark_type":"surface","carpark_type_str":"Surface","is_ttc":false,"rate_half_hour":"1.00","capacity":"22","max_height":"0.00","payment_methods":["Coins","Charge (Visa \/ Mastercard \/ American Express Only)"],"payment_options":["Pay and Display"],"rate_details":{"periods":[{"title":"Monday - Sunday & Holidays","rates":[{"when":"Day Maximum (7am - 6pm)","rate":"NO MAXIMUM"},{"when":"Night Maximum (6pm - 7am)","rate":"$2.00"}],"notes":[]}],"addenda":[]},"enable_streetview":"yes","streetview_lat":"43.597051","streetview_long":"-79.521706","streetview_yaw":"139.96","streetview_pitch":"3.15","streetview_zoom":"0"},{"id":"511","address":"120 Sixth Street","lat":"43.600152","lng":"-79.503990","rate":"$0.75 \/ Half Hour","carpark_type":"surface","carpark_type_str":"Surface","is_ttc":false,"rate_half_hour":"0.75","capacity":"54","max_height":"0.00","payment_methods":["Coins","Charge (Visa \/ Mastercard \/ American Express Only)"],"payment_options":["Pay and Display"],"rate_details":{"periods":[{"title":"Monday - Sunday & Holidays","rates":[{"when":"Day Maximum (7am - 6pm)","rate":"$4.00"},{"when":"Night Maximum (6pm - 7am)","rate":"$2.00"}],"notes":[]}],"addenda":[]},"enable_streetview":"yes","streetview_lat":"43.600531","streetview_long":"-79.503917","streetview_yaw":"219.74","streetview_pitch":"6.17","streetview_zoom":"0"},{"id":"512","address":"3220 Bloor Street West","lat":"43.645959","lng":"-79.518067","rate":"$1.00 \/ Half Hour","carpark_type":"surface","carpark_type_str":"Surface","is_ttc":false,"rate_half_hour":"1.00","capacity":"57","max_height":"0.00","payment_methods":["Coins","Charge (Visa \/ Mastercard \/ American Express Only)"],"payment_options":["Pay and Display"],"rate_details":{"periods":[{"title":"Monday - Sunday & Holidays","rates":[{"when":"Day Maximum (7am - 6pm)","rate":"$8.00"},{"when":"Night Maximum (6pm - 7am)","rate":"$3.00"}],"notes":[]}],"addenda":[]},"enable_streetview":"yes","streetview_lat":"43.645974","streetview_long":"-79.517561","streetview_yaw":"319.53","streetview_pitch":"-9.46","streetview_zoom":"0"},{"id":"513","address":"575 Royal York Road","lat":"43.626997","lng":"-79.502724","rate":"$0.75 \/ Half Hour","carpark_type":"surface","carpark_type_str":"Surface","is_ttc":false,"rate_half_hour":"0.75","capacity":"28","max_height":"0.00","payment_methods":["Coins","Charge (Visa \/ Mastercard \/ American Express Only)"],"payment_options":["Pay and Display"],"rate_details":{"periods":[{"title":"Monday - Sunday & Holidays","rates":[{"when":"Maximum (Any 24 hr Period)","rate":"$4.00"}],"notes":[]}],"addenda":[]},"enable_streetview":"yes","streetview_lat":"43.626794","streetview_long":"-79.502791","streetview_yaw":"51.85","streetview_pitch":"1.06","streetview_zoom":"0"},{"id":"517","address":"15 Primrose Avenue","lat":"43.614299","lng":"-79.489882","rate":"$0.75 \/ Half Hour","carpark_type":"surface","carpark_type_str":"Surface","is_ttc":false,"rate_half_hour":"0.75","capacity":"23","max_height":"0.00","payment_methods":["Coins","Charge (Visa \/ Mastercard \/ American Express Only)"],"payment_options":["Pay and Display"],"rate_details":{"periods":[{"title":"Monday - Sunday & Holidays","rates":[{"when":"Maximum (Any 24 hr Period)","rate":"$4.00"}],"notes":[]}],"addenda":[]},"enable_streetview":"yes","streetview_lat":"43.614174","streetview_long":"-79.489700","streetview_yaw":"357.95","streetview_pitch":"0.62","streetview_zoom":"0"},{"id":"519","address":"5 Dayton Avenue","lat":"43.625584","lng":"-79.503551","rate":"$0.75 \/ Half Hour","carpark_type":"surface","carpark_type_str":"Surface","is_ttc":false,"rate_half_hour":"0.75","capacity":"15","max_height":"0.00","payment_methods":["Coins","Charge (Visa \/ Mastercard \/ American Express Only)"],"payment_options":["Pay and Display"],"rate_details":{"periods":[{"title":"Monday - Sunday & Holidays","rates":[{"when":"Day Maximum (7am - 6pm)","rate":"$4.00"},{"when":"Night Maximum (6pm - 7am)","rate":"$3.00"}],"notes":[]}],"addenda":[]},"enable_streetview":"yes","streetview_lat":"43.625642","streetview_long":"-79.503755","streetview_yaw":"54.64","streetview_pitch":"0.62","streetview_zoom":"0"},{"id":"520","address":"20 Royalavon Crescent","lat":"43.645253","lng":"-79.532733","rate":"$0.75 \/ Half Hour","carpark_type":"surface","carpark_type_str":"Surface","is_ttc":false,"rate_half_hour":"0.75","capacity":"62","max_height":"0.00","payment_methods":["Coins","Charge (Visa \/ Mastercard \/ American Express Only)"],"payment_options":["Pay and Display"],"rate_details":{"periods":[{"title":"Monday - Sunday & Holidays","rates":[{"when":"Maximum (7am - 7am)","rate":"$4.00"}],"notes":[]}],"addenda":[]},"enable_streetview":"yes","streetview_lat":"43.645597","streetview_long":"-79.532518","streetview_yaw":"205.12","streetview_pitch":"2.98","streetview_zoom":"0"},{"id":"600","address":"550 Mortimer Avenue","lat":"43.690428","lng":"-79.327898","rate":"$1.25 \/ Half Hour","carpark_type":"surface","carpark_type_str":"Surface","is_ttc":false,"rate_half_hour":"1.25","capacity":"20","max_height":"0.00","payment_methods":["Coins","Charge (Visa \/ Mastercard \/ American Express Only)"],"payment_options":["Pay and Display"],"rate_details":{"periods":[{"title":"Monday - Friday","rates":[{"when":"Day Maximum (7am - 5pm)","rate":"NO MAXIMUM"},{"when":"Night Maximum (5pm - 7am)","rate":"$2.00"}],"notes":[]},{"title":"Saturday & Sunday","rates":[{"when":"Day Maximum (7am - 5pm)","rate":"$5.00"},{"when":"Night Maximum (5pm - 7am)","rate":"$2.00"}],"notes":[]}],"addenda":[]},"enable_streetview":"yes","streetview_lat":"43.690382","streetview_long":"-79.327563","streetview_yaw":"342.18","streetview_pitch":"3.39","streetview_zoom":"0"},{"id":"650","address":"22 John Street","lat":"43.701334","lng":"-79.517477","rate":"$0.75 \/ Half Hour","carpark_type":"surface","carpark_type_str":"Surface","is_ttc":false,"rate_half_hour":"0.75","capacity":"190","max_height":"0.00","payment_methods":["Coins","Charge (Visa \/ Mastercard \/ American Express Only)"],"payment_options":["Pay and Display"],"rate_details":{"periods":[{"title":"Monday - Sunday & Holidays","rates":[{"when":"Day Maximum (7am - 6pm)","rate":"$4.50"},{"when":"Night Maximum (6pm - 7am)","rate":"$2.00"}],"notes":[]}],"addenda":["100 spaces designated to Go Transit"]},"enable_streetview":"yes","streetview_lat":"43.701785","streetview_long":"-79.517149","streetview_yaw":"258.02","streetview_pitch":"-6.98","streetview_zoom":"0"},{"id":"652","address":"301 Scott Road","lat":"43.690343","lng":"-79.472383","rate":"$0.75 \/ Half Hour","carpark_type":"surface","carpark_type_str":"Surface","is_ttc":false,"rate_half_hour":"0.75","capacity":"14","max_height":"0.00","payment_methods":["Coins","Charge (Visa \/ Mastercard \/ American Express Only)"],"payment_options":["Pay and Display"],"rate_details":{"periods":[{"title":"Monday - Sunday & Holidays","rates":[{"when":"Day Maximum (7am - 6pm)","rate":"$5.00"},{"when":"Night Maximum (6pm - 7am)","rate":"$3.00"}],"notes":[]}],"addenda":[]},"enable_streetview":"yes","streetview_lat":"43.690409","streetview_long":"-79.472573","streetview_yaw":"110.03","streetview_pitch":"5.51","streetview_zoom":"0"},{"id":"653","address":"17 Riverview Gardens","lat":"43.649119","lng":"-79.486397","rate":"$1.00 \/ Half Hour","carpark_type":"surface","carpark_type_str":"Surface","is_ttc":false,"rate_half_hour":"1.00","capacity":"113","max_height":"0.00","payment_methods":["Coins","Charge (Visa \/ Mastercard \/ American Express Only)"],"payment_options":["Pay and Display"],"rate_details":{"periods":[{"title":"Monday - Sunday & Holidays","rates":[{"when":"Day Maximum (7am - 6pm)","rate":"$7.00"},{"when":"Night Maximum (6pm - 7am)","rate":"$5.00"}],"notes":[]}],"addenda":[]},"enable_streetview":"yes","streetview_lat":"43.648860","streetview_long":"-79.486131","streetview_yaw":"358.54","streetview_pitch":"-4.64","streetview_zoom":"0"},{"id":"654","address":"16 Riverview Gardens","lat":"43.648894","lng":"-79.486663","rate":"$1.00 \/ Half Hour","carpark_type":"surface","carpark_type_str":"Surface","is_ttc":false,"rate_half_hour":"1.00","capacity":"100","max_height":"0.00","payment_methods":["Coins","Charge (Visa \/ Mastercard \/ American Express Only)"],"payment_options":["Pay and Display"],"rate_details":{"periods":[{"title":"Monday - Sunday & Holidays","rates":[{"when":"Day Maximum (7am - 6pm)","rate":"$7.00"},{"when":"Night Maximum (6pm - 7am)","rate":"$4.00"}],"notes":[]}],"addenda":[]},"enable_streetview":"yes","streetview_lat":"43.649059","streetview_long":"-79.486488","streetview_yaw":"247.89","streetview_pitch":"5.13","streetview_zoom":"0"},{"id":"657","address":"271A Scarlett Road","lat":"43.677890","lng":"-79.506555","rate":"$0.75 \/ Half Hour","carpark_type":"surface","carpark_type_str":"Surface","is_ttc":false,"rate_half_hour":"0.75","capacity":"11","max_height":"0.00","payment_methods":["Coins","Charge (Visa \/ Mastercard \/ American Express Only)"],"payment_options":["Pay and Display"],"rate_details":{"periods":[{"title":"Monday - Sunday & Holidays","rates":[{"when":"Maximum (7am - 7am)","rate":"NO MAXIMUM"}],"notes":[]}],"addenda":[]},"enable_streetview":"yes","streetview_lat":"43.677937","streetview_long":"-79.506395","streetview_yaw":"294.84","streetview_pitch":"0.91","streetview_zoom":"0"},{"id":"658","address":"2054 Dufferin Street","lat":"43.686611","lng":"-79.446806","rate":"$0.75 \/ Half Hour","carpark_type":"surface","carpark_type_str":"Surface","is_ttc":false,"rate_half_hour":"0.75","capacity":"94","max_height":"0.00","payment_methods":["Coins","Charge (Visa \/ Mastercard \/ American Express Only)"],"payment_options":["Pay and Display"],"rate_details":{"periods":[{"title":"Monday - Sunday & Holidays","rates":[{"when":"Maximum (Any 24 hr Period)","rate":"$4.00"}],"notes":[]}],"addenda":[]},"enable_streetview":"yes","streetview_lat":"43.686824","streetview_long":"-79.446640","streetview_yaw":"249.55","streetview_pitch":"2.81","streetview_zoom":"0"},{"id":"660","address":"406 Oakwood Avenue","lat":"43.688069","lng":"-79.439317","rate":"$0.75 \/ Half Hour","carpark_type":"surface","carpark_type_str":"Surface","is_ttc":false,"rate_half_hour":"0.75","capacity":"21","max_height":"0.00","payment_methods":["Coins","Charge (Visa \/ Mastercard \/ American Express Only)"],"payment_options":["Pay and Display"],"rate_details":{"periods":[{"title":"Monday - Sunday & Holidays","rates":[{"when":"Day Maximum (7am - 6pm)","rate":"$4.00"},{"when":"Night Maximum (6pm - 7am)","rate":"$3.00"}],"notes":[]}],"addenda":[]},"enable_streetview":"yes","streetview_lat":"43.688251","streetview_long":"-79.439139","streetview_yaw":"273.67","streetview_pitch":"-1.38","streetview_zoom":"0"},{"id":"661","address":"433 Rogers Road","lat":"43.682507","lng":"-79.463983","rate":"$0.75 \/ Half Hour","carpark_type":"surface","carpark_type_str":"Surface","is_ttc":false,"rate_half_hour":"0.75","capacity":"24","max_height":"0.00","payment_methods":["Coins","Charge (Visa \/ Mastercard \/ American Express Only)"],"payment_options":["Pay and Display"],"rate_details":{"periods":[{"title":"Monday - Sunday & Holidays","rates":[{"when":"Day Maximum (7am - 6pm)","rate":"$4.50"},{"when":"Night Maximum (6pm - 7am)","rate":"$2.50"}],"notes":[]}],"addenda":[]},"enable_streetview":"yes","streetview_lat":"43.682625","streetview_long":"-79.464007","streetview_yaw":"132.97","streetview_pitch":"-0.16","streetview_zoom":"0"},{"id":"663","address":"1 Shortt Street","lat":"43.695951","lng":"-79.451795","rate":"$1.00 \/ Half Hour","carpark_type":"surface","carpark_type_str":"Surface","is_ttc":false,"rate_half_hour":"1.00","capacity":"130","max_height":"0.00","payment_methods":["Coins","Charge (Visa \/ Mastercard \/ American Express Only)"],"payment_options":["Pay and Display"],"rate_details":{"periods":[{"title":"Monday - Sunday & Holidays","rates":[{"when":"Day Maximum (7am - 6pm)","rate":"$5.00"},{"when":"Night Maximum (6pm - 7am)","rate":"$3.00"}],"notes":[]}],"addenda":[]},"enable_streetview":"yes","streetview_lat":"43.695758","streetview_long":"-79.451718","streetview_yaw":"346.12","streetview_pitch":"-4.06","streetview_zoom":"0"},{"id":"664","address":"1607 Eglinton Avenue West","lat":"43.696952","lng":"-79.443727","rate":"$1.00 \/ Half Hour","carpark_type":"surface","carpark_type_str":"Surface","is_ttc":false,"rate_half_hour":"1.00","capacity":"40","max_height":"0.00","payment_methods":["Coins","Charge (Visa \/ Mastercard \/ American Express Only)"],"payment_options":["Pay and Display"],"rate_details":{"periods":[{"title":"Monday - Sunday & Holidays","rates":[{"when":"Day Maximum (7am - 6pm)","rate":"$5.00"},{"when":"Night Maximum (6pm - 7am)","rate":"$3.00"},